[{"name":"SERVICE UNIVERSITAIRE D'INFORMATION D'ORIENTATION ET D'INSERTION PROFESSIONNELLE DE L'UNIVERSITE DE BRETAGNE SUD A VANNES","lon":-2.74394598001,"lat":47.6441927795},{"name":"SERVICE DE MEDECINE PREVENTIVE UNIVERSITAIRE DE L'UNIVERSITE DE BRETAGNE SUD A LORIENT","lon":-3.39460388915,"lat":47.7465443776},{"name":"SERVICE COMMUN DE LA DOCUMENTATION UNIVERSITAIRE DE L UNIVERSITE DE VALENCIENNES","lon":3.51377191347,"lat":50.3283198863},{"name":"INSTITUT D'ADMINISTRATION DES ENTREPRISES","lon":3.06200060261,"lat":50.6463637179},{"name":"UFR DE MEDECINE POLE DE RECHERCHE","lon":3.03663786492,"lat":50.6140007418},{"name":"CENTRE DE GESTION UNIVERSITAIRE UNIVERSITÉ DU LITTORAL","lon":1.8779995624999999,"lat":50.9525500318},{"name":"INSTITUT UNIVERSITAIRE DE TECHNOLOGIE DU LITTORAL COTE D'OPALE - UNIVERSITÉ DU LITTORAL","lon":1.59669711398,"lat":50.7241192045},{"name":"ANTENNE DE VALENCIENNES DE L'ÉCOLE SUPÉRIEURE DU PROFESSORAT ET DE L'ÉDUCATION DE L'ACADÉMIE DE LILLE","lon":3.52506507498,"lat":50.3590782788},{"name":"INSTITUT SUPÉRIEUR AQUITAIN DU BÂTIMENT ET DES TRAVAUX PUBLICS DE L'UNIVERSITÉ DE PAU","lon":-1.50879609654,"lat":43.4785814571},{"name":"ANTENNE UNITE FORMATION RECHERCHE SCIENTIFIQUE","lon":-1.50914534686,"lat":43.4797041774},{"name":"SERVICE UNIVERSITAIRE DES RELATIONS INTERNATIONALES, UNIVERSITE DE PERPIGNAN","lon":2.90181015325,"lat":42.682877065},{"name":"ANTENNE DE L'UNITE DE FORMATION ET DE RECHERCHE DES SCIENCES JURIDIQUES ET ECONOMIQUES, UNIVERSITE DE PERPIGNAN","lon":3.02256037653,"lat":43.1837930659},{"name":"FACULTÉ DE GÉOGRAPHIE ET D'AMÉNAGEMENT, UNIVERSITÉ DE STRASBOURG","lon":7.77161227784,"lat":48.5842357658},{"name":"INSTITUT TRADUCTEURS, INTERPRÈTES ET RELATIONS INTERNATIONALES","lon":7.76764205153,"lat":48.5777065462},{"name":"INSTITUT UNIVERSITAIRE DE TECHNOLOGIE DE MULHOUSE, UNIVERSITÉ DE MULHOUSE","lon":7.29974099217,"lat":47.7302112674},{"name":"SERVICE UNIVERSITAIRE DES ACTIVITÉS PHYSIQUES ET SPORTIVES DE L'UNIVERSITÉ DE MULHOUSE","lon":7.30700846528,"lat":47.7279751376},{"name":"UNITÉ DE FORMATION ET DE RECHERCHE FACULTÉ DE MARKETING ET D'AGROSCIENCES, UNIVERSITÉ DE MULHOUSE","lon":7.36936397971,"lat":48.0777098359},{"name":"INSTITUT DE SCIENCE FINANCIERE ET D'ASSURANCES   (ISFA) UNIVERSITE LYON 1","lon":4.82621369089,"lat":45.7263597068},{"name":"SERVICE GENERAL D'ACTION SOCIALE, UNIVERSITE LYON 2","lon":4.83627413457,"lat":45.7507835216},{"name":"ANTENNE UFR LETTRES ET CIVILISATIONS BOURG UNIVERSITE LYON 3","lon":5.21964511555,"lat":46.2082369963},{"name":"UNITE DE FORMATION ET DE RECHERCHE DE SCIENCES ECONOMIQUES ET DE GESTION, UNIVERSITE PARIS 2","lon":2.33349381551,"lat":48.8435720583},{"name":"CENTRE INTERUNIVERSITAIRE DE FORMATION À LA FONCTION PERSONNEL UNIVERSITÉ PARIS 2","lon":2.3559037481000003,"lat":48.8453856112},{"name":"SERVICE COMMUN UNIVERSITAIRE DE LA FORMATION CONTINUE - UNIVERSITÉ PARIS 3","lon":2.354175419,"lat":48.8401483014},{"name":"BIBLIOTHÈQUE SAINTE-BARBE,CHANCELLERIE DES UNIVERSITÉS DE PARIS","lon":2.34669688494,"lat":48.8475211331},{"name":"UNIVERSITE DE LILLE 1","lon":3.14121748731,"lat":50.6091558173},{"name":"SERVICE COMMUN UNIVERSITAIRE D'ACCUEIL, D'ORIENTATION ET D'INSERTION PROFESSIONNELLE DE L'UNIVERSITÉ PARIS 4","lon":2.34280602515,"lat":48.8483065485},{"name":"CENTRE DE GESTION UNIVERSITAIRE UNIVERSITÉ DU LITTORAL","lon":1.60567740743,"lat":50.7621927239},{"name":"UNITÉ DE FORMATION DE RECHERCHE D'ODONTOLOGIE   -  FACULTÉ DE CHIRURGIE DENTAIRE -  UNIVERSITÉ DE PARIS  DESCARTES","lon":2.31426025413,"lat":48.8214511689},{"name":"ANTENNE DU CENTRE UNIVERSITAIRE D'ENSEIGNEMENT ET D'ÉDUCATION PERMANENTE UNIVERISTÉ DU LITTORAL","lon":1.5958361723299999,"lat":50.7133678494},{"name":"CENTRE REGIONAL ASSOCIE CNAM LANGUEDOC ROUSSSILLON ANTENNE NIMES","lon":4.3677498725,"lat":43.8200310223},{"name":"UFR SCIENCES TECHNIQUES ACTIVITES PHYSIQUES ET SPORTIVES","lon":2.76604879484,"lat":50.4122995821},{"name":"CENTRE RÉGIONAL ASSOCIÉ AU CNAM DE L'UNIVERSITÉ DE LORRAINE","lon":5.93818653236,"lat":49.2500617941},{"name":"SERVICE COMMUN DE FORMATION CONTINUE UNIVERSITE DE PAU PAYS DE L'ADOUR","lon":-0.363899801057,"lat":43.3199816524},{"name":"MISSION FORMATION PERMANENTE ET VALIDATION DES ACQUIS","lon":3.08806721814,"lat":45.7705405287},{"name":"INSTITUT UNIVERSITAIRE PROFESSIONNALISE DE GENIE SYSTEMES INDUSTRIELS - UNIVERSITE DE PAU","lon":-1.5088046314999999,"lat":43.4788163034},{"name":"CUST/POLYTECH'CLERMONT-FERRAND","lon":3.10901008138,"lat":45.7606717827},{"name":"CENTRE UNIVERSITAIRE ETUDES FRANCAISES, UNIVERSITE DE PERPIGNAN","lon":2.90181015325,"lat":42.682877065},{"name":"CENTRE RÉGIONAL ASSOCIÉ AU CNAM","lon":3.10458070559,"lat":45.7566399831},{"name":"ANTENNE DE L'INSTITUT D'ADMINISTRATION DES ENTREPRISES, UNIVERSITÉ DE PERPIGNAN","lon":3.49391474378,"lat":44.5179957918},{"name":"ECOLES SUPÉRIEURE DE CONCEPTION ET DE PRODUCTION INDUSTRIELLE CONSERVATOIRE NATIONAL DES ARTS ET MÉTIERS","lon":2.35463366137,"lat":48.8669613986},{"name":"FACULTÉ DES LETTRES, UNIVERSITÉ DE STRASBOURG","lon":7.76272507442,"lat":48.5784903443},{"name":"CENTRE DE SOCIOLOGIE DU TRAVAIL ET DE L'ENTREPRISE CONSERVATOIRE NATIONAL DES ARTS ET MÉTIERS","lon":2.35646054943,"lat":48.8659522801},{"name":"SERVICE INTERUNIVERSITAIRE DE MÉDECINE PRÉVENTIVE ET DE PROMOTION DE LA SANTÉ, UNIVERSITÉ DE STRASBOURG","lon":7.76422890094,"lat":48.5768088597},{"name":"CENTRE REGIONAL ASSOCIE AU CONSERVATOIRE NATIONAL DES ARTS ET METIERS","lon":1.23257430745,"lat":45.8231562534},{"name":"UNITÉ RÉGIONALE DE FORMATION À L'INFORMATION SCIENTIFIQUE ET TECHNIQUE, UNIVERSITÉ DE STRASBOURG","lon":7.76635047359,"lat":48.5816279963},{"name":"CENTRE RÉGIONALE ASOCIÉ AU CONSERVATOIRE NATIONAL DES ARTS ET MÉTIERS","lon":2.57441180406,"lat":48.8418288686},{"name":"INSTITUT UNIVERSITAIRE DE TECHNOLOGIE DE HAGUENAU, UNIVERSITÉ DE STRASBOURG","lon":7.78620405192,"lat":48.8164560041},{"name":"CENTRE REGIONAL ASSOCIE-CNAM","lon":55.4481630044,"lat":-20.8789280021},{"name":"UNITE DE FORMATION ET DE RECHERCHE LETTRES, SCIENCES DU LANGAGE ET ARTS UNIVERSITE LYON 2","lon":4.83627413457,"lat":45.7507835216},{"name":"CENTRE RÉGIONAL ASSOCIÉ DU CNAM ANNEXE AJACCIO","lon":8.74132499581,"lat":41.9326559016},{"name":"SERVICE COMMUN UNIVERSITAIRE DE LA FORMATION CONTINUE - UNIVERSITÉ PARIS 3","lon":2.27469249327,"lat":48.8710687402},{"name":"COLLÈGE DE FRANCE","lon":2.34553384174,"lat":48.8490931507},{"name":"SERVICE DES RELATIONS INTERNATIONALES - UNIVERSITÉ PARIS 3","lon":2.27469249327,"lat":48.8710687402},{"name":"MUSEUM NATIONAL D'HISTOIRE NATURELLE - STATION MARINE DE DINARD","lon":-2.07694480787,"lat":48.6349424431},{"name":"SERVICE COMMUN UNIVERSITAIRE DES ACTIVITÉS PHYSIQUES ET SPORTIVES - UNIVERSITÉ PARIS 4","lon":2.34239817519,"lat":48.8489860213},{"name":"ANT MNHM DE PARIS","lon":17.8459,"lat":3.8319},{"name":"SERVICE COMMUN DE LA DOCUMENTATION UNIVERSITAIRE - UNIVERSITÉ PARIS 5","lon":2.33091443055,"lat":48.8550343811},{"name":"INSTITUT DE PREPARATION A L'ADMINISTRATION GENERALE DE L'UNIVERSITE DE ROUEN","lon":1.07760654185,"lat":49.4441907242},{"name":"UNITÉ DE FORMATION ET DE RECHERCHE - FACULTÉ DES SCIENCES HUMAINES ET SOCIALES UNIVERSITÉ PARIS 5","lon":2.33128829118,"lat":48.8555320152},{"name":"INSTITUT UNIVERSITAIRE PROFESSIONNALISE GENIE SYSTEMES INDUSTRIELS","lon":1.06971187856,"lat":49.3866266046},{"name":"OBSERVATOIRE OCEANOLOGIQUE DE ROSCOFF, UNIVERSITE PARIS 6","lon":-3.98757413992,"lat":48.7269987437},{"name":"ECOLE SUPÉRIEURE DU PROFESSORAT ET DE L'ÉDUCATION DE L'ACADÉMIE DE ROUEN","lon":1.07339609717,"lat":49.4671647049},{"name":"DÉPARTEMENT DE FORMATION DE PREMIER CYCLE DE LETTRES ET SCIENCES HUMAINES - UNIVERSITÉ PARIS DIDEROT","lon":2.38061985571,"lat":48.8297403837},{"name":"SERVICE COMMUN UNIVERSITAIRE D'INFORMATION ET D'ORIENTATION DE L'UNIVERSITE DU HAVRE","lon":0.12911440160999998,"lat":49.4958588322},{"name":"CENTRE D'ENSEIGNEMENT ET DE RECHERCHE DE PARIS","lon":2.35750629061,"lat":48.8336629183},{"name":"INSTITUT FRANCILIEN D'INGENIERIE DES SERVICES, UNIVERSITÉ PARIS-EST MARNE-LA-VALLÉE","lon":2.77519436162,"lat":48.85473238},{"name":"CENTRE REGIONAL ASSOCIE AU CENTRE DES ARTS ET METIERS DE LILLE","lon":2.37650699146,"lat":51.0376729009},{"name":"DÉPARTEMENT ÉDUCATION UNIVERSITÉ PARIS-EST MARNE-LA-VALLÉE","lon":2.58668173527,"lat":48.8395380878},{"name":"CENTRE REGIONAL ASSOCIE AU CONSERVATOIRE NATIONAL DES ARTS ET METIERS DE LILLE","lon":1.84211453525,"lat":50.9467478376},{"name":"INSTITUT DE SCIENCES  ET TECHNIQUES DES YVELINES DE L'UNIVERSITÉ DE VERSAILLES SAINT QUENTIN EN YVELINES","lon":2.14898706453,"lat":48.8113672003},{"name":"CENTRE D'ENSEIGNEMENT ET DE FORMATION DES MAÎTRES","lon":5.21767239699,"lat":45.6225529597},{"name":"ECOLE CENTRALE DE MARSEILLE","lon":5.43562696826,"lat":43.3400363144},{"name":"UNITE DE FORMATION ET DE RECHERCHE LANGUES APPLIQUEES COMMERCE ET COMMUNICATION, UNIVERSITE CLERMONT 2","lon":3.09199461355,"lat":45.774558982},{"name":"INSTITUT DE RECHERCHE POUR L ENSEIGNEMENT DES MATHEMATIQUES DE L UNIVERSITE D AIX-MARSEILLE","lon":5.43798874829,"lat":43.2348800026},{"name":"SERVICE INTER UNIVERSITAIRE DES ACTIVITES PHYSIQUES ET SPORTIVES DE L'UNIVERSITE CLERMONT 2","lon":3.08354183638,"lat":45.7646439637},{"name":"ANTENNE UFR SCIENCES,UNIVERSITE AIX MARSEILLE","lon":4.62558552946,"lat":43.6755499338},{"name":"CENTRE ASSOCIÉ AU CNAM","lon":6.19275698593,"lat":49.1139993623},{"name":"ANTENNE UFR ECONOMIE GESTION, UNIVERSITE AIX MARSEILLE","lon":4.6253999843999996,"lat":43.6760468069},{"name":"CENTRE REGIONAL ASSOCIE AU CONSERVATOIRE NATIONAL DES ARTS ET METIERS DE PARIS","lon":3.98236203394,"lat":50.2777741476},{"name":"INSTITUT DE RECHERCHE SUR L'ENSEIGNEMENT DES MATHEMATIQUES","lon":-0.367279297795,"lat":49.2103129485},{"name":"CONSERVATION NATIONAL DES ARTS ET MÉTIERS","lon":2.12118351185,"lat":48.7943963681},{"name":"SERVICE GENERAL UNIVERSITAIRE DE LA COOPERATION ET DES RELATIONS INTERNATIONALES DE L'UNIVERSITE DE BREST","lon":-4.5077871175,"lat":48.3982171498},{"name":"CENTRE REGIONAL AGREE DU CNAM","lon":35.522467,"lat":33.810005},{"name":"SERVICE DE MEDECINE PREVENTIVE,UNIVERSITE DE BREST","lon":-4.49788124049,"lat":48.4005782826},{"name":"FORT DE France","lon":-61.069843248,"lat":14.6037636897},{"name":"INSTITUT NATIONAL DES SCIENCES APPLIQUÉES DE TOULOUSE","lon":1.46793912042,"lat":43.5703886533},{"name":"MUSÉE DU MUSEUM NATIONAL D'HISTOIRE NATURELLE","lon":2.35520073622,"lat":48.843834924},{"name":"IUP MÉTHODES INFORMATIQUES APPLIQUÉES À LA  GESTION UNIVERSITÉ TOULOUSE 1","lon":1.4360490880899999,"lat":43.6065352037},{"name":"ANTENNE DELOCALISEE DU SERVICE COMMUN DE LA DOCUMENTATION UNIVERSITAIRE - ANTENNE DE MEDECINE ET PHARMACIE UNIVERSITE DE ROUEN","lon":1.10679932477,"lat":49.4383033695},{"name":"ECOLE SUPÉRIEURE D'AUDIOVISUEL (IUP)               UNIVERSITÉ TOULOUSE 2","lon":1.44246679844,"lat":43.6071772567},{"name":"INSTITUT DE RECHERCHE EN ENSEIGNEMENT DES MATHEMATIQUES DE L'UNIVERSITE DE ROUEN","lon":1.0722118167,"lat":49.4601512972},{"name":"INSTITUT RÉGIONAL DU TRAVAIL DE L'UNIVERSITÉ TOULOUSE II - LE MIRAIL","lon":1.40431758745,"lat":43.5776014391},{"name":"ANTENNE DE L'UNITE DE FORMATION ET DE RECHERCHE DE MEDECINE ET PHARMACIE","lon":0.12911440160999998,"lat":49.4958588322},{"name":"UNITÉ DE FORMATION ET DE RECHERCHE DES SCIENCES MÉDICALES - RANGUEIL - UNIVERSITÉ TOULOUSE 3","lon":1.4583603272399999,"lat":43.5620575639},{"name":"SERVICE UNIVERSITAIRE DE MEDECINE PREVENTIVE DE L'UNIVERSITE DU HAVRE","lon":0.12911440160999998,"lat":49.4958588322},{"name":"UNITÉ DE FORMATION ET DE RECHERCHE DENTAIRE UNIVERSITÉ TOULOUSE 3","lon":1.46088975619,"lat":43.5657524937},{"name":"UNITÉ DE FORMATION ET DE RECHERCHE DE SCIENCES HUMAINES ET SOCIALES, UNIVERSITÉ PARIS-EST MARNE-LA-VALLÉE","lon":2.59324214144,"lat":48.8375955013},{"name":"IUP DES MÉTIERS DU TRANSPORT DE L'HÔTELLERIE DU TOURISME ET DES LOISIRS    UNIVERSITÉ TOULOUSE 3","lon":1.4666314813499999,"lat":43.5615159593},{"name":"UNITÉ DE FORMATION ET DE RECHERCHE ÉCOLE INGÉNIEURS 2000, UNIVERSITÉ PARIS-EST MARNE-LA-VALLÉE","lon":2.58641072121,"lat":48.8393518856},{"name":"INSTITUT D'ETUDES POLITIQUES DE BORDEAUX","lon":-0.614346221637,"lat":44.7987424549},{"name":"UFR SCIENCES UNIVERSITÉ DE NICE","lon":7.26826839522,"lat":43.7173188555},{"name":"DEPARTEMENT DES ETUDES ANGLOPHONES D AGEN","lon":0.627120974526,"lat":44.2079646153},{"name":"INSTITUT DES LANGUES UNIVERSITÉ NICE","lon":7.23761106607,"lat":43.6923372461},{"name":"DEPARTEMENT D ETUDES DES PAYS HISPANOPHONES D AGEN","lon":0.627146103476,"lat":44.2084118062},{"name":"UFR ECO ET MANAGEMENT","lon":7.28798625898,"lat":43.7087157721},{"name":"ECOLE NATIONALE SUPERIEURE DE TECHNOLOGIE DES BIOMOLECULES DE BORDEAUX","lon":-0.605292420981,"lat":44.8255398635},{"name":"ECOLE POLYTECHNIQUE MARSEILLE, UNIVERSITE AIX MARSEILLE","lon":5.3587082935,"lat":43.2936444552},{"name":"SERVICE COMMUNICATION FORMATION LANGUE OMEGA UNIVERSITE BORDEAUX I","lon":-0.592166528493,"lat":44.8059489822},{"name":"ANTENNE UFR PSYCHOLOGIE SCIENCES DE L EDUCATION DE L UNIVERSITE AIX-MARSEILLE","lon":5.26499555578,"lat":43.6533076349},{"name":"FORMATION MEDICALE CONTINUE BORDEAUX","lon":-0.607773871938,"lat":44.8251734475},{"name":"UNITE DE FORMATION ET DE RECHERCHE D'EDUCATION PHYSIQUE ET SPORTIVE, UNIVERSITE DE CAEN","lon":-0.367185677193,"lat":49.2135360684},{"name":"SERVICE UNIVERSITAIRE DE MÉDECINE PRÉVENTIVE ET DE PROMOTION DE LA SANTÉ, UNIVERSITÉ DE MONTPELLIER","lon":3.87298426216,"lat":43.6132960254},{"name":"ECOLE DOCTORALE DE L'UNIVERSITÉ DE LA ROCHELLE","lon":-1.15509676253,"lat":46.1481967585},{"name":"SERVICE GÉNÉRAL DES PERSONNELS HORS COMPOSANTES DE L'UNIVERSITÉ DE RENNES 1","lon":-1.67302183427,"lat":48.1159730993},{"name":"INSA CENTRE VAL DE LOIRE CAMPUS DE BLOIS","lon":1.3256956074000001,"lat":47.5845805087},{"name":"CENTRE D'ÉTUDES UNIVERSITAIRES DE SAINT BRIEUC, UNIVERSITÉ DE RENNES 2","lon":-2.74179748796,"lat":48.5139102675},{"name":"CENTRE UNIVERSITAIRE CONDORCET","lon":4.42265567692,"lat":46.807677130100004},{"name":"INSTITUT D'ETUDES POLITIQUES DE RENNES, RATTACHE A L'UNIVERSITE DE RENNES 1","lon":-1.66829575263,"lat":48.1207577358},{"name":"INSTITUT UNIVERSITAIRE DE TECHNOLOGIE DE CHALON SUR SAONE, UNIVERSITE DE DIJON","lon":4.85593620285,"lat":46.7771490602},{"name":"ANTENNE DE BONNEVILLE DE L'ÉCOLE SUPÉRIEURE DU PROFESSORAT ET DE L'ÉDUCATION DE L'ACADÉMIE DE GRENOBLE","lon":6.40264627738,"lat":46.0744865476},{"name":"UNIVERSITE DE BESANCON-ANTENNE BIBLIOTHEQUE UNIVERSITAIRE","lon":6.85722581231,"lat":47.6402920207},{"name":"UNITÉ DE FORMATION ET DE RECHERCHE DE MÉDECINE - UNIVERSITÉ GRENOBLE ALPES","lon":5.74448373664,"lat":45.201836085},{"name":"SERVICE D'ACTIVITÉS INDUSTRIELLES ET COMMERCIALES","lon":5.99781554307,"lat":47.2515653424},{"name":"UNIVERSITE DE SAINT-ETIENNE","lon":4.39270132858,"lat":45.4247719723},{"name":"INSTITUT UNIVERSITAIRE DE TECHNOLOGIE DE BREST (MORLAIX), UNIVERSITÉ BREST","lon":-3.8354121057899997,"lat":48.584080883},{"name":"UNITE DE FORMATION ET DE RECHERCHE SCIENCES HUMAINES ET SOCIALES UNIVERSITE DE SAINT ETIENNE","lon":4.39112199339,"lat":45.4260560169},{"name":"INSTITUT DE LA PROMOTION SUPÉRIEURE DU TRAVAIL     DE TOULOUSE","lon":1.44984503651,"lat":43.5939564962},{"name":"SERVICE UNIVERSITAIRE DES ACTIVITÉS PHYSIQUES ET SPORTIVES DE PLEIN AIR, UNIVERSITÉ DE NANTES","lon":-1.556185052,"lat":47.2462980724},{"name":"UNITÉ DE FORMATION ET DE RECHERCHE DES SCIENCES JURIDIQUES UNIVERSITÉ TOULOUSE 1","lon":1.43605048763,"lat":43.6063021383},{"name":"ECOLE NATIONALE VÉTÉRINAIRE AGROALIMENTAIRE ET DE L'ALIMENTATION, NANTES ATLANTIQUE (ONIRIS) - SITE DE LA GÉRAUDIÈRE","lon":-1.51931115895,"lat":47.2831976978},{"name":"IUP MÉTHODES INFORMATIQUES APPLIQUÉES À LA GESTION   UNIVERSITÉ TOULOUSE 3","lon":1.46726081896,"lat":43.5614438539},{"name":"ADMINISTRATION ET GESTION DES COLLECTIVITES TERRITORIALES","lon":1.93165524013,"lat":47.8453325581},{"name":"IUP MANAGEMENT ET GESTION DES ENTREPRISES          INGÉNIÉRIE DE L'ENTREPRISE RÉSEAU                  UNIVERSITÉ TOULOUSE 3","lon":1.46651118769,"lat":43.5616645452},{"name":"INSTITUT SUPÉRIEUR DES TECHNIQUES DE L'INGÉNIEUR DE L'UNIVERSITÉ DE LORRAINE","lon":6.16281109652,"lat":49.1203275011},{"name":"SERVICE UNIVERSITAIRE INFORMATION ORIENTATION UNIVERSITE DE BORDEAUX 3","lon":-0.622277178445,"lat":44.7935085312},{"name":"UNIVERSITE AMIENS","lon":2.29887554251,"lat":49.8985281829},{"name":"UNITE DE FORMATION ET DE RECHERCHE DES SCIENCES ET TECHNIQUES DES ACTIVITES PHYSIQUES ET SPORTIVES UNIVERSITE DE BORDEAUX","lon":-0.615748245774,"lat":44.79426972},{"name":"UNIVERSITE AMIENS","lon":2.30161095764,"lat":49.8963096258},{"name":"FACULTÉ DES SCIENCES SOCIALES, DES ORGANISATIONS ET DES INSTITUTIONS, UNIVERSITÉ DE MONTPELLIER 3","lon":3.8698900855,"lat":43.6339270123},{"name":"INSTITUT D'ADMINISTRATION DES ENTREPRISES, UNIVERSITE D'AMIENS","lon":2.30160399163,"lat":49.8962089698},{"name":"INSTITUT D'ETUDES FRANCAISES POUR ETUDIANTS ET PROFESSEURS ETRANGERS, UNIVERSITE DE MONTPELLIER 3","lon":3.87365788622,"lat":43.6245123989},{"name":"UNIVERSITE AMIENS","lon":2.2940091962,"lat":49.9023505249},{"name":"SERVICE DES RELATIONS INTERNATIONALES, UNIVERSITE DE MONTPELLIER 3","lon":3.87365788622,"lat":43.6245123989},{"name":"UNIVERSITE AMIENS","lon":2.26960298115,"lat":49.8771408326},{"name":"UNITÉ DE FORMATION ET DE RECHERCHE D'ADMINISTRATION ÉCONOMIQUE ET SOCIALE, UNIVERSITÉ DE MONTPELLIER","lon":3.90003716984,"lat":43.6029513839},{"name":"CTRE DE TOULOUSE","lon":1.40460759222,"lat":43.5776335978},{"name":"CENTRE DE FORMATION D'APPRENTIS DE L'ENSEIGNEMENT SUPÉRIEUR ASUR LR","lon":3.85053891909,"lat":43.635464084},{"name":"ANTENNE CNED","lon":-61.538564975,"lat":16.2465904094},{"name":"UNITE DE FORMATION ET DE RECHERCHE DE MATHEMATIQUES, UNIVERSITE DE RENNES 1","lon":-1.6380435765299999,"lat":48.1139294336},{"name":"INSTITUT UNIVERSITAIRE DE TECHNOLOGIE DE LIMOGES, ANTENNE DE TULLE","lon":1.77340127192,"lat":45.2641080598},{"name":"ECOLE NORMALE SUPÉRIEURE DE RENNES","lon":-1.7451891748000001,"lat":48.0449951873},{"name":"SERVICE COMMUN UNIVERSITAIRE D'INFORMATION DE D'ORIENTATION, UNIVERSITE DE LIMOGES","lon":1.26269914584,"lat":45.8251756645},{"name":"DÉPARTEMENT FORMATION CONTINUE IPG","lon":5.71740391918,"lat":45.1906842796},{"name":"INSTITUT UNIVERSITAIRE PROFESSIONNALISÉE - AMÉNAGEMENT ET DÉVELOPPEMENT TERRITORIAL - UNIVERSITÉ D'EVRY","lon":2.43213724887,"lat":48.6318019693},{"name":"ANTENNE DE SAINT-MARTIN-D'HÈRES DE L'INSTITUT UNIVERSITAIRE DE TECHNOLOGIE 2 DE GRENOBLE - UNIVERSITÉ GRENOBLE ALPES","lon":5.76790497011,"lat":45.1908165178},{"name":"UNITÉ DE FORMATION ET DE RECHERCHE ECONOMIE ET GESTION -  UNIVERSITÉ DE CERGY-PONTOISE","lon":2.07492971012,"lat":49.0383034742},{"name":"INSTITUT DE GÉOGRAPHIE ET D'AMÉNAGEMENT RÉGIONAL, UNIVERSITÉ DE NANTES","lon":-1.55014219604,"lat":47.2454192372},{"name":"UNITÉ DE FORMATION ET DE RECHERCHE DROIT - UNIVERSITÉ  DE CERGY-PONTOISE","lon":2.07492971012,"lat":49.0383034742},{"name":"UNITÉ DE FORMATION ET DE RECHERCHE PSYCHOLOGIE, UNIVERSITÉ DE NANTES","lon":-1.54996990669,"lat":47.2454332192},{"name":"UNITÉ DE FORMATION ET DE RECHERCHE LANGUES ET ÉTUDES INTERNATIONALES - UNIVERSITÉ DE CERGY-PONTOISE","lon":2.07492971012,"lat":49.0383034742},{"name":"ANTENNE UNITÉ DE FORMATION ET DE RECHERCHE HISTOIRE DE L'ART ET ARCHÉOLOGIE, UNIVERSITÉ DE NANTES","lon":-1.4039083267399999,"lat":46.6776172078},{"name":"SERVICE COMMUN DE LA DOCUMENTATION","lon":2.07492971012,"lat":49.0383034742},{"name":"UFR DE DROIT","lon":1.9322361149399998,"lat":47.8461686188},{"name":"UFR 3ÈME CYCLE DES SC-MÉDICALES","lon":-61.532260604,"lat":16.2248509582},{"name":"DIRECTION DE LA FORMATION CONTINUE, UNIVERSITÉ D'ANGERS","lon":-0.546395058425,"lat":47.4484843969},{"name":"UNITE DE FORMATION ET DE RECHERCHE SCIENCES JURIDIQUES ET ECONOMIQUES, UNIVERSITE DES ANTILLES","lon":-61.1023660801,"lat":14.6160689539},{"name":"SERVICE UNIVERSITAIRE DES ACTIVITÉS PHYSIQUES ET SPORTIVES DE PLEIN AIR, UNIVERSITÉ D'ANGERS.","lon":-0.599771786952,"lat":47.474837911},{"name":"ANTENNE INSTITUT UNIVERSITAIRE DE TECHNOLOGIE, UNIVERSITE DES ANTILLES ET DE LA GUYANE","lon":-61.0961269516,"lat":14.6220575993},{"name":"UNITÉ DE FORMATION ET DE RECHERCHE D'ODONTOLOGIE, UNIVERSITÉ DE REIMS","lon":4.0195050419,"lat":49.2246833995},{"name":"INSTITUT UNIVERSIAIRE DE TECHNOLOGIE DE LA RÉUNION, UNIVERSITÉ DE LA RÉUNION","lon":55.4899674507,"lat":-21.3411873879},{"name":"UNIVERSITÉ REIMS CHAMPAGNE ARDENNE","lon":4.04031636604,"lat":49.2558587737},{"name":"ANTENNE DE L'UNITÉ DE FORMATION ET DE RECHERCHE LETTRES LANGUES ET ARTS","lon":3.24489964768,"lat":50.1894468863},{"name":"UNITÉ DE FORMATION ET DE RECHERCHE DES LETTRES ET SCIENCES HUMAINES, UNIVERSITÉ DE REIMS","lon":4.00081239396,"lat":49.2369918627},{"name":"SERVICE COMMUN UNIVERSITAIRE DES ACTIVITES PHYSIQUES ET SPORTIVES","lon":3.03439762336,"lat":50.6134754754},{"name":"UNITÉ DE FORMATION ET DE RECHERCHE DES SCIENCES ÉCONOMIQUES ET GESTION, UNIVERSITÉ DE REIMS","lon":4.0025736163,"lat":49.2376811993},{"name":"CENTRE DE TÉLÉENSEIGNEMENT UNIVERSITAIRE UNIVERSITÉ DE LILLE 3","lon":3.12630508426,"lat":50.6268902211},{"name":"ANTENNE UNITÉ DE FORMATION ET DE RECHERCHE SCIENCES EXACTES ET NATURELLES, UNIVERSITÉ DE REIMS","lon":5.1448452742,"lat":48.1128542744},{"name":"UFR LANGUES LITTERATURES ET CIVILISATIONS ETRANGERES","lon":3.12630508426,"lat":50.6268902211},{"name":"UNITÉ DE FORMATION ET DE RECHERCHE FACULTÉ DES SCIENCES ET DES TECHNOLOGIES DE L'UNIVERSITÉ DE LORRAINE","lon":6.16308209953,"lat":48.6669185965},{"name":"INSTITUT UNIVERSITAIRE DE TECHNOLOGIE DU LITTORAL COTE D'OPALE - UNIVERSITÉ DU LITTORAL","lon":1.88323056009,"lat":50.9506959617},{"name":"SERVICE COMMUN DE FORMATION CONTINUE DE L'UNIVERSITÉ DE VERSAILLES SAINT QUENTIN EN YVELINES","lon":2.14152703423,"lat":48.7995486148},{"name":"ECOLE D'INGENIEURS DU LITTORAL - COTE D'OPALE","lon":1.8779995624999999,"lat":50.9525500318},{"name":"ANTENNE D IUT","lon":3.3304840046,"lat":49.4011180843},{"name":"INSTITUT UNIVERISTAIRE PROFESSIONNALISE GENIE ELECTRIQUE INFORMATISE INDUSTRIEL - PAU","lon":-0.364211051936,"lat":43.3113515907},{"name":"ECOLE DOCTORALE EN SCIENCES, TECHNOLOGIE ET SANTÉ, UNIVERSITÉ DE PICARDIE JULES VERNE","lon":2.30052758467,"lat":49.899048812},{"name":"INSTITUT UNIVERSITAIRE DE TECHNOLOGIE DE BAYONNE UNIVERSITE DE PAU","lon":-1.50933620209,"lat":43.478210226},{"name":"SERV UNIV FORMATION CONTINUE UNIVERSITÉ TOULON","lon":6.01765691158,"lat":43.1363803922},{"name":"ECOLE SUPÉRIEURE DE BIOTECHNOLOGIE, UNIVERSITÉ DE STRASBOURG","lon":7.73848643824,"lat":48.5258076122},{"name":"MANAGEMENT ET GESTION DES ENTREPRISES","lon":5.93855728623,"lat":43.1219113407},{"name":"FACULTÉ DE CHIMIE, UNIVERSITÉ DE STRASBOURG","lon":7.76741332357,"lat":48.5808608272},{"name":"SCD ISITV UNIVERSITÉ TOULON","lon":6.00876641069,"lat":43.1374066584},{"name":"SERVICE UNIVERSITAIRE DE L'ACTION CULTURELLE","lon":7.31371753709,"lat":47.7332299295},{"name":"SERVICE COMMUN DE FORMATION CONTINUE DE L UNIVERSITE D AVIGNON","lon":4.81791124694,"lat":43.9465029598},{"name":"UNITE DE FORMATION ET DE RECHERCHE TEMPS ET TERRITOIRES","lon":4.91949272061,"lat":45.7178002078},{"name":"SERVICE COMMUN UNIVERSITAIRE D INFORMATION ET D ORIENTATION INSERTION PROFESSIONNELLE DE L' UNIVERSITE D AVIGNON","lon":4.81549785104,"lat":43.9494390328},{"name":"ECOLE D'INGÉNIEURS DE LA VILLE DE PARIS","lon":2.38200395036,"lat":48.8740892052},{"name":"INSTITUT DE PREPARATION A L'ADMINISTRATION GENERALE UNIVERSITE DE POITIERS","lon":0.381168307584,"lat":46.5709387613},{"name":"UNIVERSITÉ PARIS-DAUPHINE","lon":2.27469249327,"lat":48.8710687402},{"name":"INSTITUT DE PREPARATION A L'ADMINISTRATION GENERALE, UNIVERSITE DE LIMOGES","lon":1.2303467088,"lat":45.820428221},{"name":"UNITÉ DE FORMATION ET DE RECHERCHE - DROIT UNIVERSITÉ PARIS 1","lon":2.34487583162,"lat":48.8468015806},{"name":"UNITÉ DE FORMATION ET DE RECHERCHE SCIENCES JURIDIQUES ET ECONOMIQUES - UNIVERSITÉ PARIS 11","lon":2.28576945398,"lat":48.7819814301},{"name":"PÔLE LANGUES UNIVERSITÉ PARIS 2","lon":2.33349381551,"lat":48.8435720583},{"name":"UNITÉ DE FORMATION ET DE RECHERCHE  SCIENCES DE L'HOMME ET DE LA SOCIÉTÉ, UNIVERSITÉ EVRY-VAL D'ESSONNE","lon":2.43248370228,"lat":48.631764941},{"name":"ANTENNE D'UNITÉS DE FORMATIONS ET DE RECHERCHES DE SCIENCES DU MANAGEMENT PRIVÉ ET PUBLIC","lon":2.65581949799,"lat":48.5366117447},{"name":"INSTITUT UNIVERSITAIRE PROFESSIONNALISÉ GÉNIE DES MATÉRIAUX - UNIVERSITÉ D'EVRY - VAL D'ESSONNE","lon":2.42597955226,"lat":48.6249351892},{"name":"SERVICE GÉNÉRAL DES PRESSES - UNIVERSITÉ PARIS 4","lon":2.3430428757,"lat":48.8490839957},{"name":"INSTITUT UNIVERSITAIRE PROFESSIONNALISÉ BIOTECHNOLOGIES ET BIO-INDUSTRIE - UNIVERSITÉ D'EVRY","lon":2.42597955226,"lat":48.6249351892},{"name":"INSTITUT UNIVERSITAIRE DE TECHNOLOGIE UNIVERSITÉ PARIS 5","lon":2.26775983416,"lat":48.8419862077},{"name":"UNITÉ DE FORMATION ET DE RECHERCHE SCIENCES SOCIALES ET  ADMINISTRATION - SSA UNIVERSITÉ  PARIS 10","lon":2.2091096772,"lat":48.9048274111},{"name":"UNITÉ DE FORMATION ET DE RECHERCHE - INGÉNIERIE UNIVERSITÉ PARIS 6","lon":2.35455041277,"lat":48.8466149367},{"name":"INSTITUT NATIONAL SUPÉRIEUR DE FORMATION ET DE RECHERCHE POUR L'ÉDUCATION DES JEUNES HANDICAPÉS ET LES ENSEIGNEMENTS ADAPTÉS","lon":2.21284215632,"lat":48.8693748056},{"name":"INSTITUT ETUDES POLITIQUES  PARIS (NANCY)","lon":6.19068892268,"lat":48.6827371418},{"name":"INSTITUT UNIVERSITAIRE DE TECHNOLOGIE DE VILLETANEUSE, UNIVERSITÉ PARIS 13","lon":2.34087145465,"lat":48.9563251944},{"name":"INSTITUT NATIONAL DES SCIENCES ET INDUSTRIES DU VIVANT ET DE L'ENVIRONNEMENT - AGROPARISTECH","lon":2.34878621544,"lat":48.8393168507},{"name":"SERVICE COMMUN DE FORMATION CONTINUE DE L'UNIVERSITÉ PARIS 12","lon":2.44238768499,"lat":48.7887986975},{"name":"CONSERVATOIRE REGIONALE DES ARTS ET METIERS ASSOCIE AU CNAM CAEN - SITE D'ALENCON","lon":0.0575726348719,"lat":48.4447169163},{"name":"SERVICE COMMUN UNIVERSITAIRE DE FORMATION DES FORMATEURS UNIVERSITÉ PARIS 12","lon":2.44238768499,"lat":48.7887986975},{"name":"ANT CTRE REG CNAM PLOUFRAGAN","lon":-4.50151052249,"lat":48.4008640886},{"name":"ANTENNE DE L'UNITÉ DE FORMATION ET DE RECHERCHE SCIENCES ÉCONOMIQUE ET GESTION UNIVERSITÉ PARIS 12","lon":2.44363812818,"lat":48.79496808},{"name":"CENTRE REGIONAL ASSOCIE CNAM LANGUEDOC ROUSSSILLON ANTENNE PERPIGNAN","lon":2.89842348614,"lat":42.6822562314},{"name":"ANTENNE DE SAINT GERMAIN EN LAYE DE L'ÉCOLE SUPÉRIEURE DU PROFESSORAT ET DE L'ÉDUCATION DE L'ACADÉMIE DE VERSAILLES","lon":2.06972577129,"lat":48.9006629359},{"name":"CENTRE NATIONAL ASSOCIÉ CNAM","lon":-0.558956401046,"lat":47.4754578895},{"name":"ANTENNE DE CERGY PONTOISE DE L'ÉCOLE SUPÉRIEURE DU PROFESSORAT ET DE L'ÉDUCATION DE L'ACADÉMIE DE VERSAILLES","lon":2.07841771197,"lat":49.033744206},{"name":"CENTRE RÉGIONAL ASSOCIÉ CNAM","lon":-0.8701197903469999,"lat":47.0495472694},{"name":"SERVICE MÉDECINE PRÉVENTIVE UNIVERSITÉ CORSE","lon":9.15541803628,"lat":42.3061080009},{"name":"CENTRE RÉGIONAL AGRÉÉ DU CONSERVATOIRE NATIONAL DES ARTS ET MÉTIERS","lon":1.44944436151,"lat":43.5943044517},{"name":"SERVICE FORMATION PERMANENTE UNIVERSITÉ CORSE","lon":9.15066554416,"lat":42.3056433352},{"name":"SERVICE UNIVERSITAIRE D'INFORMATION ET D'ORIENTATION","lon":3.09245417908,"lat":45.7761956969},{"name":"INSTITUT DES ADMINISTRATIONS ET DES ENTREPRISES UNIVERSITÉ DE CORSE","lon":9.15213785086,"lat":42.3065361305},{"name":"CENTRE REGIONAL ASSOCIE AU CNAM DE LYON","lon":4.83684077565,"lat":45.7364364512},{"name":"INSTITUT UNIVERSITAIRE DE SANTÉ CORSE","lon":9.15066554416,"lat":42.3056433352},{"name":"CENTRE ENSEIGNEMENT DU CRAM","lon":2.4826525335,"lat":49.2576753658},{"name":"ANTENNE BIBLIOTHÈQUE CAMPUS DE FOUILLOLE","lon":-61.532260604,"lat":16.2248509582},{"name":"CENTRE RÉGIONAL ASSOCIÉ DU CNAM ANNEXE CORTÉ","lon":9.15541803628,"lat":42.3061080009},{"name":"ECOLE NATIONALE SUPÉRIEURE D'INGÉNIEURS DE L'UBS, SITE DE VANNES","lon":-2.74849532215,"lat":47.6447077888},{"name":"ECOLE PRATIQUE DES HAUTES ÉTUDES","lon":2.34075397748,"lat":48.8314861134},{"name":"ECOLE NATIONALE SUPERIEURE DE CHIMIE DE LILLE, RATTACHEE A L'UNIVERSITE DE LILLE 1","lon":3.13711007597,"lat":50.6095221001},{"name":"MUSEUM NATIONAL D'HISTOIRE NATURELLE - STATION MARITIME DE RECHERCHE","lon":-1.5669171066,"lat":43.4837254674},{"name":"UFR SCIENCES TECHNIQUES ACTIVITES PHYSIQUES ET SPORTIVES","lon":3.5163965513499997,"lat":50.3265787927},{"name":"ECOLE NATIONALE DE STATISTIQUE ET D'ADMINISTRATION ÉCONOMIQUE PARISTECH","lon":2.30260229163,"lat":48.824335521},{"name":"IUP DES METHODES INFORMATIQUES APPLIQUEES A LA GESTION DES ENTREPRISES","lon":3.14269125215,"lat":50.6101233882},{"name":"UNITE DE FORMATION ET DE RECHERCHE DE MEDECINE ET PHARMACIE DE L'UNIVERSITE DE ROUEN","lon":1.10831398393,"lat":49.438016871},{"name":"UFR DEVELOPPEMENT SOCIAL, EDUCATION, CULTURE, COMMUNICATION, INFORMATION, DOCUMENTATION","lon":3.12630508426,"lat":50.6268902211},{"name":"UNITE DE FORMATION ET DE RECHERCHE DES SCIENCES ET TECHNIQUES","lon":1.07195074718,"lat":49.458173729},{"name":"A","lon":2.26212575649,"lat":50.7373199736},{"name":"SERVICE COMMUN DE FORMATION CONTINUE DE L'UNIVERSITE DE ROUEN","lon":1.0680931326,"lat":49.4582821762},{"name":"SERVICE COMMUN DE DOCUMENTATION UNIVERSITAIRE UNIVERSITÉ DU LITTORAL","lon":2.26212575649,"lat":50.7373199736},{"name":"INSTITUT UNIVERSITAIRE PROFESSIONNALISE GESTION ET AMENAGEMENT DE L'ENVIRONNEMENT ET DU PATRIMOINE","lon":1.06689174202,"lat":49.4591656533},{"name":"ANTENNE DE DOUAI DE L'ÉCOLE SUPÉRIEURE DU PROFESSORAT ET DE L'ÉDUCATION DE L'ACADÉMIE DE LILLE","lon":3.07074798069,"lat":50.3694604439},{"name":"ECOLE POLYTECHNIQUE DE L'UNIVERSITÉ DE NICE","lon":7.07163725205,"lat":43.6156164579},{"name":"ANTENNE DE L'INSTITUT UNIVERSITAIRE DE FORMATION DES MAITRES DE L'ACADEMIE DE LILLE","lon":3.13417931211,"lat":50.6391004562},{"name":"ANTENNE DE DRAGUIGNAN DE L'ESPE","lon":6.45569413967,"lat":43.5395363082},{"name":"UNITÉ DE FORMATION ET DE RECHERCHE SCIENCES APPLIQUÉES UNIVERSITÉ D'ARTOIS","lon":2.64003714693,"lat":50.5296460731},{"name":"UNITE DE FORMATION ET DE RECHERCHE DE SCIENCES UNIVERSITÉ AIX-MARSEILLE","lon":5.37905194597,"lat":43.3043554952},{"name":"UNITE DE FORMATION ET DE RECHERCHE DES LETTRES LANGUES ET SCIENCES HUMAINES  UNIVERSITE DE PAU ET DES PAYS DE L ADOUR","lon":-0.368502721936,"lat":43.3145286531},{"name":"INSTITUT UNIVERSITAIRE  DE CAEN - SITE DE VIRE","lon":-0.881646552981,"lat":48.8384335286},{"name":"UNIVERSITE DE PERPIGNAN VIA DOMITIA","lon":2.89904952649,"lat":42.6845512961},{"name":"UNITE DE FORMATION ET DE RECHERCHE DE SCIENCES HUMAINES, UNIVERSITE DE DIJON","lon":5.06296134379,"lat":47.3130577422},{"name":"IUT LOUIS PASTEUR SCHILTIGHEIM, UNIVERSITÉ DE STRASBOURG","lon":7.70828477013,"lat":48.6070667654},{"name":"CENTRE DE LANGUES","lon":5.06296134379,"lat":47.3130577422},{"name":"UNITÉ DE FORMATION ET DE RECHERCHE DES LETTRES, LANGUES ET DES SCIENCES HUMAINES UNIVERSITÉ DE MULHOUSE","lon":7.30700846528,"lat":47.7279751376},{"name":"MAISON SCIENCE DE L'HOMME","lon":5.06354654056,"lat":47.313813702},{"name":"INSTITUT DES SCIENCES ET TECHNIQUES DE LA READAPTATION UNIVERSITE LYON 1","lon":4.88010739735,"lat":45.7422752303},{"name":"INSTITUT UNIVERSITAIRE DE TECHNOLOGIE DE BESANCON, UNIVERSITE DE BESANCON","lon":5.99109541844,"lat":47.2475965869},{"name":"INSTITUT DES SPECIALITES MEDICALES UNIVERSITE LYON 1","lon":4.88010739735,"lat":45.7422752303},{"name":"POLE UNIVERSITAIRE QUIMPEROIS PIERRE-JAKEZ HELIAS DE LETTRES ET SCIENCES SOCIALES, UNIVERSITE DE BREST","lon":-4.09322246415,"lat":47.9725067534},{"name":"SERVICE DES ETUDES DOCTORALES","lon":4.86958766591,"lat":45.7789283593},{"name":"SERVICE COMMUN UNIVERSITAIRE DES ETUDIANTS ETRANGERS DE L'UNIVERSITE DE BREST","lon":-4.50825550735,"lat":48.3984079162},{"name":"UNITE DE FORMATION ET DE RECHERCHE FACULTE DE MEDECINE LYON EST CLAUDE BERNARD UNIVERSITE LYON 1","lon":4.88010739735,"lat":45.7422752303},{"name":"UNIVERSITÉ TOULOUSE 1 CAPITOLE","lon":1.4355249307,"lat":43.6062729734},{"name":"ANTENNE DE BOURG EN BRESSE DE L'ÉCOLE SUPÉRIEURE DU PROFESSORAT ET DE L'ÉDUCATION DE L'ACADÉMIE DE LYON","lon":5.21880004046,"lat":46.1947021697},{"name":"SERVICE COMMUN D'INFORMATION ET D'ORIENTATION DE L'UNIVERSITÉ TOULOUSE 2","lon":1.40070483294,"lat":43.5785580222},{"name":"UNITE DE FORMATION ET DE RECHERCHE PHILOSOPHIE UNIVERSITE LYON 3","lon":4.83704101191,"lat":45.7498171569},{"name":"INSTITUT SUPERIEUR DU TOURISME, DE L'HOTELLERIE ET DE L'ALIMENTATION (ISTHIA)","lon":1.40025241183,"lat":43.5785792567},{"name":"SERVICE COMMUN DE LA FORMATION APPLIQUEE ET CONTINUE UNIVERSITE LYON 3","lon":4.83740345143,"lat":45.7518568143},{"name":"UNITÉ DE FORMATION ET DE RECHERCHE DES SCIENCES PHARMACEUTIQUES UNIVERSITÉ TOULOUSE 3","lon":1.46142742984,"lat":43.5684562566},{"name":"SERVICE UNIVERSITAIRE D'ACCUEIL, D'ORIENTATION ET D'INSERTION PROFESSIONNELLE UNIVERSITE LYON 3","lon":4.86141163321,"lat":45.7488122233},{"name":"CENTRE DE PREPARATION A L ADMINISTRATION GENERALE","lon":-0.615218780912,"lat":44.7983552922},{"name":"SERV COMMUN ACTIVITÉS PHYSIQUES ET SPORTIVES DE L'UNIVERSITÉ DE CHAMBÉRY","lon":5.93076278707,"lat":45.5712978349},{"name":"UNITÉ DE FORMATION DE BIOLOGIE DE L'UNIVERSITÉ DE BORDEAUX","lon":-0.592166528493,"lat":44.8059489822},{"name":"SERVICE DE LA RECHERCHE ET DES THÈSES - UNIVERSITÉ PARIS 3","lon":2.27469249327,"lat":48.8710687402},{"name":"SERVICE COMMUN UNIVERSITAIRE INFORMATIQUE UNIVERSITE DE BORDEAUX","lon":-0.607773871938,"lat":44.8251734475},{"name":"UNITÉ DE FORMATION ET DE RECHERCHE - OCCIDENT MODERNE UNIVERSITÉ PARIS 4","lon":2.34280602515,"lat":48.8483065485},{"name":"SERVICE COMMUN UNIVERSITAIRE D INFORMATION ET D ORIENTATION DE L UNIVERSITE BORDEAUX","lon":-0.613911889088,"lat":44.7992910675},{"name":"UNITÉ DE FORMATION DE RECHERCHE DROIT  UNIVERSITÉ PARIS DESCARTE","lon":2.3022143915299997,"lat":48.8244151019},{"name":"SERVICE COMMUN DES ACTIVITES PHYSIQUES ET SPORTIVES, UNIVERSITE MONTPELLIER 3","lon":3.87365788622,"lat":43.6245123989},{"name":"SERVICE COMMUN UNIVERSITAIRE DE LA FORMATION CONTINUE - UNIVERSITÉ PARIS 6","lon":2.34118455848,"lat":48.8507726638},{"name":"ANTENNE DE L'UFR D'ÉDUCATION ET SCIENCES POUR LETTRES, LANGUES, ARTS, SCIENCES HUMAINES ET SOCIALES, UNIVERSITÉ MONTPELLIER 3","lon":3.2248803738,"lat":43.3487464942},{"name":"UNITÉ DE FORMATION ET DE RECHERCHE - TERRE, ENVIRONNEMENT ET BIODIVERSITÉ  UNIVERSITÉ PARIS 6","lon":2.35455041277,"lat":48.8466149367},{"name":"SERVICE INTER-UNIVERSITAIRE DE MEDECINE PREVENTIVE ET DE PROMOTION DE LA SANTE,  UNIVERSITES DE RENNES 1 ET DE RENNES 2","lon":-1.64533401982,"lat":48.1188134595},{"name":"UNITÉ DE FORMATION ET DE RECHERCHE - LINGUISTIQUE UNIVERSITÉ PARIS 7","lon":2.3702637909,"lat":48.8244753337},{"name":"ECOLE POLYTECHNIQUE UNIVERSITAIRE DE TOURS","lon":0.684683320932,"lat":47.3647153142},{"name":"UNITÉ DE FORMATION ET DE RECHERCHE - ÉTUDES INTERCULTURELLES DE LANGUES APPLIQUÉES - UNIVERSITÉ PARIS DIDEROT","lon":2.38266839206,"lat":48.8281509948},{"name":"CYCLE PRÉPARATOIRE POLYTECHNIQUE IPG","lon":5.76305949522,"lat":45.1923384725},{"name":"ENSAM CENTRE D'ENSEIGNEMENT  ET DE RECHERCHE DE L'UNIVERSITÉ DE LORRAINE","lon":6.22694002499,"lat":49.094585497},{"name":"ANTENNE DE VALENCE CYCLE PRÉPARATOIRE POLYTECHNIQUE","lon":4.9166453299,"lat":44.9191742141},{"name":"INSTITUT DES SCIENCES ET INDUSTRIES DU VIVANT ET DE L'ENVIRONNEMENT,AGROPARISTECH - GRIGNON","lon":1.91724130264,"lat":48.85120108},{"name":"MEDIAT RHÔNE-ALPES CENTRE RÉGIONAL DE FORMATION AUX MÉTIERS DES BIBLIOTHÈQUES - UNIVERSITÉ GRENOBLE ALPES","lon":5.76790497011,"lat":45.1908165178},{"name":"CENTRE AGREE DU CNAM-ANNEXE DE BESANCON","lon":6.10478241593,"lat":47.6333842578},{"name":"UNITÉ DE FORMATION ET DE RECHERCHE DE LANGAGE, LETTRES ARTS DU SPECTABLE, INFORMATION ET COMMUNICATION - UNIVERSITE GRENOBLE ALPES","lon":5.72628081679,"lat":45.1868757226},{"name":"CENTRE REGIONAL ASSOCIE CNAM LANGUEDOC ROUSSSILLON, ANTENNE DE BEZIERS","lon":3.2702642333,"lat":43.3331011651},{"name":"ANTENNE DE BLOIS DE L'ÉCOLE SUPÉRIEURE DU PROFESSORAT ET DE L'ÉDUCATION DE L'ACADÉMIE D'ORLÉANS-TOURS","lon":1.33981751534,"lat":47.592405281},{"name":"UNITE DE FORMATION ET DE RECHERCHE LETTRES LANGUES ET SCIENCES HUMAINES, UNIVERSITE CLERMONT 2","lon":3.09113013372,"lat":45.7716042762},{"name":"UNITÉ DE FORMATION ET DE RECHERCHE DROIT ÉCO GESTION, UNIVERSITÉ D'ANGERS","lon":-0.549640597908,"lat":47.478515903},{"name":"CONSERVATOIRE NATIONAL DES ARTS ET MÉTIERS","lon":3.1728560781,"lat":46.9971915021},{"name":"SERVICE COMMUN UNIVERSITAIRE D'EDUCATION PERMANENTE, UNIVERSITÉ DE REIMS","lon":4.06864893971,"lat":49.2418095737},{"name":"CENTRE REGIONAL ASSOCIE AU CONSERVATOIRE NATIONAL DES ARTS ET METIERS DE PARIS","lon":3.51447192045,"lat":50.3273679547},{"name":"UNITÉ DE FORMATION ET DE RECHERCHE DE DROIT, SCIENCES ECONOMIQUES ET GESTION DE L'UNIVERSITÉ DE LORRAINE","lon":6.17585579891,"lat":48.692936292},{"name":"0","lon":2.32858043124,"lat":48.787292455},{"name":"AN.COMM. DES ÉTUDES DE SANTÉ","lon":6.1488214478,"lat":48.6511189983},{"name":"INSTITUT UNIVERSITAIRE PROFESSIONNALISE GENIE DES SYSTEMES INDUSTRIELS, UNIVERSITE CLERMONT 2","lon":3.11113205656,"lat":45.7641266916},{"name":"UNIVERSITÉ DE LORRAINE","lon":6.17666840401,"lat":48.6959023275},{"name":"CNAM GUYANE","lon":-52.3324975252,"lat":4.94142128391},{"name":"UNITÉ DE FORMATION ET DE RECHERCHE  DES SCIENCES SOCIALES DE L'UNIVERSITÉ DE VERSAILLES SAINT QUENTIN EN YVELINES","lon":2.04384680737,"lat":48.7803388913},{"name":"UNITE REGIONALE DE FORMATION A L INFORMATION SCIENTIFIQUE ET TECHNIQUE DE PARIS","lon":2.3507395025799998,"lat":48.8500766301},{"name":"SERVICE CENTRAUX ET PRÉSIDENCE DE L'UNIVERSITÉ DE VERSAILLES  SAINT QUENTIN EN YVELINES","lon":2.14152703423,"lat":48.7995486148},{"name":"INSTITUT NATIONAL D'HISTOIRE DE L'ART","lon":2.33884005993,"lat":48.8664947727},{"name":"UNIVERSITE AMIENS","lon":2.26232427371,"lat":49.8754845038},{"name":"ECOLE NATIONALE DE LA STATISTIQUE ET DE L'ANALYSE DE L'INFORMATION","lon":-1.74181246251,"lat":48.0502032593},{"name":"DÉPARTEMENT SCIENCES HUMAINES SOCIALES - INSTITUT NATIONAL UNIVERSITAIRE JEAN-FRANÇOIS CHAMPOLLION","lon":2.13899763948,"lat":43.9199821869},{"name":"INSTITUT UNIVERSITAIRE DE TECHNOLOGIE DE ROUEN SITE PASTEUR UNIVERSITE DE ROUEN","lon":1.07724802615,"lat":49.4443019095},{"name":"DÉPARTEMENT ARTS, LETTRES ET LANGUES - INSTITUT NATIONAL UNIVERSITAIRE JEAN-FRANÇOIS CHAMPOLLION","lon":2.13899763948,"lat":43.9199821869},{"name":"UNITÉ DE FORMATION ET DE RECHERCHE DE SCIENCES DE LA MATIÈRE, UNIVERSITÉ PARIS-EST MARNE-LA-VALLÉE","lon":2.5925277205399997,"lat":48.8381848408},{"name":"SERV UNIV ACTIV PHYSIQUE SPORT UNIVERSITÉ TOULON","lon":6.01765691158,"lat":43.1363803922},{"name":"SERVICE UNIVERSITAIRE DE MÉDECINE PRÉVENTIVE ET DE PROMOTION DE LA SANTÉ, UNIVERSITÉ PARIS-EST MARNE-LA-VALLÉE","lon":2.58648394102,"lat":48.8399115325},{"name":"MÉTIERS DE L'INFORMATION ET DE LA COMMUNICATION","lon":6.01765691158,"lat":43.1363803922},{"name":"SCE COMMUN SYSTEME INFORMATION UNIVERSITÉ NICE","lon":7.26313586889,"lat":43.7158350092},{"name":"UNIVERSITE D AVIGNON ET DES PAYS DE VAUCLUSE","lon":4.8176178917,"lat":43.9498871992},{"name":"UNITE DE FORMATION ET DE RECHERCHE PHARMACIE,  UNIVERSITE AIX MARSEILLE","lon":5.40048067074,"lat":43.2889069546},{"name":"INSTITUT UNIVERSITAIRE DE TECHNOLOGIE D'AVIGNON, UNIVERSITE D'AVIGNON","lon":4.88899864292,"lat":43.9096434212},{"name":"CENTRE DE FORMATION DE MUSICIENS INTERVENANTS, UNIVERSITE AIX MARSEILLE","lon":5.44592942837,"lat":43.5160377052},{"name":"SERVICE UNIVERSITAIRE ACTIVITES PHYSIQUES ET SPORTIVES UNIVERSITE D AVIGNON","lon":4.81549785104,"lat":43.9494390328},{"name":"UNITE DE FORMATION ET DE RECHERCHE ECONOMIE GESTION, UNIVERSITE AIX MARSEILLE","lon":5.44919881413,"lat":43.5188299921},{"name":"FACULTE DES SCIENCES DU SPORT UNIVERSITE DE POITIERS","lon":0.383834096212,"lat":46.5639364082},{"name":"EURO-INSTITUT D'ACTUARIAT, UNIVERSITÉ DE BRETAGNE OCCIDENTALE","lon":-4.49772086534,"lat":48.3991912836},{"name":"COMMUNAUTÉ D'UNIVERSITÉS ET ÉTABLISSEMENTS UNIVERSITÉ CONFÉDÉRALE LÉONARD DE VINCI","lon":0.360322,"lat":46.657891},{"name":"INSTITUT UNIVERSITAIRE PROFESSIONNALISE AUX METIERS DE L INFORMATION ET DE LA COMMUNICATION, UNIVERSITE DE NIMES","lon":4.35643119796,"lat":43.8427893346},{"name":"INSTITUT UNIVERSITAIRE DE TECHNOLOGIE DE LIMOGES, UNIVERSITE DE LIMOGES","lon":1.23135352646,"lat":45.8357246611},{"name":"ECOLE NATIONALE SUPÉRIEURE AGRONOMIQUE DE  TOULOUSE INSTITUT NATIONAL POLYTECHNIQUE","lon":1.4925084977899998,"lat":43.535180239},{"name":"Université de Limoges","lon":1.295397,"lat":45.861025},{"name":"INSTITUT UNIVERSITAIRE DE TECHNOLOGIE DE CLERMONT-FERRAND, UNIVERSITE CLERMONT 1","lon":3.11078245056,"lat":45.7508214058},{"name":"INSTITUT UNIVERSITAIRE DE TECHNOLOGIE D'ORSAY UNIVERSITÉ DE PARIS 11","lon":2.18751222936,"lat":48.698141821},{"name":"ANTENNE DE TOULOUSE DE L'ÉCOLE SUPÉRIEURE DU PROFESSORAT ET DE L'ÉDUCATION DE L'ACADÉMIE DE TOULOUSE","lon":1.45043576992,"lat":43.5808844523},{"name":"UNIVERSITÉ EVRY VAL D'ESSONNE - INSTITUT UNIVERSITAIRE PROFESSIONNALISÉ - GÉNIE DES SYSTÈMES INDUSTRIELS","lon":2.42955812001,"lat":48.6237731046},{"name":"IUP GÉNIE MATHÉMATIQUE ET INFORMATIQUE             UNIVERSITÉ TOULOUSE 3","lon":1.46855025915,"lat":43.5595893405},{"name":"UNITÉ DE FORMATION ET DE RECHERCHE DE SANTÉ, MÉDECINE ET BIOLOGIES HUMAINES DE BOBIGNY UNIVERSITÉ PARIS 13","lon":2.42228895316,"lat":48.9160230485},{"name":"UFR LANGUES ET CIVILISATION DE BORDEAUX III","lon":-0.619341082205,"lat":44.7957738082},{"name":"SERVICE COMMUN DES ACTIVITÉS PHYSIQUES ET SPORTIVES DE L'UNIVERSITÉ PARIS 13","lon":2.3383349273,"lat":48.9565953931},{"name":"INSTITUT UNIVERSITAIRE PROFESSIONNALISE METHODES INFORMATIQUES APPLIQUEES A LA GESTION","lon":-0.592166528493,"lat":44.8059489822},{"name":"INSTITUT D'ENSEIGNEMENT À DISTANCE, UNIVERSITÉ PARIS 8","lon":2.36139886807,"lat":48.9467187464},{"name":"UNIVERSITE CLERMONT FERRAND 1","lon":3.08764847305,"lat":45.7701914648},{"name":"UNITÉ DE FORMATION ET DE RECHERCHE DE LETTRES ET SCIENCES HUMAINES, UNIVERSITÉ PARIS 12","lon":2.44449294153,"lat":48.7879450807},{"name":"INSTITUT D ETUDES JURIDIQUES ET ECONOMIQUES  DE L'UNIVERSITE BORDEAUX","lon":0.722741841846,"lat":45.1883944864},{"name":"SERVICE COMMUN DE MEDECINE PREVENTIVE DE L'UNIVERSITE PARIS 12","lon":2.44238768499,"lat":48.7887986975},{"name":"DÉPARTEMENT SCIENCES ET TECHNOLOGIES DE L'UNIVERSITÉ DE BORDEAUX","lon":-0.592166528493,"lat":44.8059489822},{"name":"ANTENNE DE SARCELLES DE L'INSTITUT UNIVERSITAIRE DE TECHNOLOGIE - UNIVERSITÉ DE CERGY-PONTOISE","lon":2.37659311011,"lat":48.9752001411},{"name":"SERVICE COMMUN UNIVERSITAIRE DE LA FORMATION CONTINUE DE L'UNIVERSITE DE MONTPELLIER 3","lon":3.87365788622,"lat":43.6245123989},{"name":"ANTENNE DE SAINT-GERMAIN-EN-LAYE DE L'UFR ECONOMIE ET GESTION, UNIVERSITÉ DE CERGY-PONTOISE","lon":2.08556247742,"lat":48.8995474005},{"name":"UNIVERSITÉ DU TIERS TEMPS DE MONTPELLIER","lon":3.87835383401,"lat":43.6107629376},{"name":"CASA VELASQUEZ DE MADRID","lon":-3.729864,"lat":40.441067},{"name":"UNITÉ DE FORMATION ET DE RECHERCHE D'ÉDUCATION ET SCIENCES POUR LETTRES, LANGUES, ARTS, SCIENCES HUMAINES ET SOCIALES, UNIVERSITÉ MONTPELLIER 3","lon":3.86907133466,"lat":43.6327115796},{"name":"SERVICE FORMATION PERMANENTE DE L'UNIVERSITE CLERMONT 2","lon":3.33522107132,"lat":46.5736923747},{"name":"ANTENNE DE L'UNITE DE FORMATION ET DE RECHERCHE DES LETTRES, ARTS, PHILOSOPHIE, LINGUISTIQUE, UNIVERSITE DE MONTPELLIER 3","lon":3.22451291528,"lat":43.3487175704},{"name":"SUP AGRO FLORAC, MONTPELLIER SUP AGRO","lon":3.59915480904,"lat":44.3203540133},{"name":"ANTENNE DE MENDE DE L'ÉCOLE SUPÉRIEURE DU PROFESSORAT ET DE L'ÉDUCATION DE L'ACADÉMIE DE MONTPELLIER","lon":3.50560986613,"lat":44.5168418374},{"name":"ANTENNE DE PERPIGNAN DE L'ÉCOLE SUPÉRIEURE DU PROFESSORAT ET DE L'ÉDUCATION DE L'ACADÉMIE DE MONTPELLIER","lon":2.90391001373,"lat":42.6790695445},{"name":"UNITÉ DE FORMATION ET DE RECHERCHE - ÉTUDES SLAVES UNIVERSITÉ PARIS 4","lon":2.30938757065,"lat":48.8835121458},{"name":"UNITE DE FORMATION ET DE RECHERCHE DE PHILOSOPHIE, UNIVERSITE DE RENNES 1","lon":-1.64533401982,"lat":48.1188134595},{"name":"UNITE DE FORMATION ET DE RECHERCHE, FACULTÉ DES SCIENCES PHARMACEUTIQUES ET BIOLOGIQUES - UNIVERSITÉ PARIS 5","lon":2.33633541127,"lat":48.843418775800004},{"name":"UFR DES ARTS ET SCIENCES HUMAINES","lon":0.680913641668,"lat":47.3964402214},{"name":"SERVICE COMMUN UNIVERSITAIRE DES ACTIVITÉS PHYSIQUES ET SPORTIVES - UNIVERSITÉ PARIS 5","lon":2.34076984825,"lat":48.8512371457},{"name":"UFR DE DROIT ECONOMIQUE ET SCIENCES HUMAINES","lon":0.684284855978,"lat":47.3662996375},{"name":"UNITÉ DE FORMATION ET DE RECHERCHE DE STOMATOLOGIE ET CHIRURGIE MAXILLO-FACIALE - UNIVERSITÉ PARIS 6","lon":2.36119002528,"lat":48.8392218484},{"name":"ANTENNE DE VALENCE DE L'ÉCOLE SUPÉRIEURE DU PROFESSORAT ET DE L'ÉDUCATION DE L'ACADÉMIE DE GRENOBLE","lon":4.89547526216,"lat":44.9215718469},{"name":"ECOLE POLYTECHNIQUE PIERRE ET MARIE CURIE UNIVERSITÉ PARIS 6","lon":2.35455041277,"lat":48.8466149367},{"name":"OBSERVATOIRE DES SCIENCES DE L'UNIVERS DE GRENOBLE - UNIVERSITÉ GRENOBLE ALPES","lon":5.76087608238,"lat":45.1937664737},{"name":"SERVICE COMMUN DE LA DOCUMENTATION  - UNIVERSITÉ PARIS 7","lon":2.3809242084099997,"lat":48.8302653928},{"name":"SERVICE COMMUN DE LA DOCUMENTATION UNIVERSITAIRE UNIVERSITE DE SAINT ETIENNE","lon":4.39236422271,"lat":45.4273977985},{"name":"SERVICE COMMUN UNIVERSITAIRE D'ACCUEIL, D'ORIENTATION ET D'INSERTION PROFESSIONNELLE DE L'UNIVERSITÉ PARIS 7","lon":2.37964513002,"lat":48.8288863259},{"name":"INSTITUT D'ÉCONOMIE ET DE MANAGEMENT DE NANTES - IAE","lon":-1.54987391432,"lat":47.2454099373},{"name":"INSTITUT DE LA PENSÉE COMPTEMPORAINE - UNIVERSITÉ PARIS DIDEROT","lon":2.38061985571,"lat":48.8297403837},{"name":"SERVICE UNIVERSITAIRE DES ÉTUDIANTS ÉTRANGERS - UNIVERSITÉ NANTES","lon":-1.5518779999999999,"lat":47.245117},{"name":"UNITÉ DE FORMATION ET DE RECHERCHE MÉDECINE PARIS DIDEROT - UNIVERSITÉ PARIS DIDEROT","lon":2.36145950073,"lat":48.8760570432},{"name":"SERVICE COMMUN DE LA DOCUMENTATION UNIVERSITAIRE, UNIVERSITE D ANGERS.","lon":-0.606525521407,"lat":47.4778448803},{"name":"ECOLE NATIONALE SUPÉRIEURE ARTS ET MÉTIERS","lon":-0.559327170598,"lat":47.4758168974},{"name":"INSTITUT UNIVERSITAIRE PROFESSIONNALISÉ MÉTIERS DES ARTS ET DE LA CULTURE, SPÉCIALITÉ PATRIMOINE CULTUREL ET DOCUMENTAIRE","lon":4.08029575004,"lat":48.2978202578},{"name":"INSTITUT DES SCIENCES ET INDUSTRIES DU VIVANT ET DE L'ENVIRONNEMENT,AGROPARISTECH - KOUROU","lon":-52.6531803987,"lat":5.17194104764},{"name":"UNIVERSITÉ DE LORRAINE","lon":5.75322023785,"lat":49.5268256215},{"name":"P1 EUDES DE SANTÉ, UNIVERSITÉ CLERMONT 1","lon":3.0891311104,"lat":45.7600183758},{"name":"VIDÉOSCOP DE L'UNIVERSITÉ DE LORRAINE","lon":6.17230526655,"lat":48.6968277654},{"name":"CENTRE RÉGIONAL ASSOCIÉ AU CNAM (MARSEILLE)","lon":5.43208080762,"lat":43.2703735733},{"name":"UNITÉ DE FORMATION ET DE RECHERCHE DE SCIENCES FONDAMENTALES ET APPLIQUÉES DE L'UNIVERSITÉ DE LORRAINE","lon":6.21403763928,"lat":49.1162416447},{"name":"UNITE DE FORMATION ET DE RECHERCHE PSYCHOLOGIE, SCIENCES SOCIALES ET DE L'EDUCATION, UNIVERSITE CLERMONT 2","lon":3.09247424156,"lat":45.775880509},{"name":"CENTRE DE FRANÇAIS LANGUE ÉTRANGÈRE","lon":0.38180415943999996,"lat":46.5704028379},{"name":"ARCNAM ALSACE","lon":7.29974099217,"lat":47.7302112674},{"name":"INSTITUT UNIVERSITAIRE DE TECHNOLOGIE DE LIMOGES, ANTENNE DE BRIVE","lon":1.50959755111,"lat":45.1548581898},{"name":"CENTRE RÉGIONAL ASSOCIÉ AU CNAM - INSTITUT DES TECHNIQUES ÉCONOMIQUES ET COMPTABLES","lon":0.12911440160999998,"lat":49.4958588322},{"name":"INSTITUT UNIVERSITAIRE PROFESSIONNALISE -MANAGEMENT ET GESTION DES ENTREPRISES (SANTE, SOCIAL, LOISIRS)-, UNIVERSITE DE LIMOGES","lon":1.23349691966,"lat":45.8150588396},{"name":"INSTITUT DE MÉCANIQUE CÉLESTE ET DE CALCUL DES ÉPHÉMÉRIDES OBSERVATOIRE DE PARIS","lon":2.33651954718,"lat":48.8369821361},{"name":"OBSERVATOIRE INSTITUT D'ASTROPHYSIQUE SPATIALE  - UNIVERSITÉ PARIS 11","lon":2.1721944361,"lat":48.6990691194},{"name":"ECOLE DES HAUTES ETUDES EN SCIENCES SOCIALES (TOULOUSE)","lon":1.40072738306,"lat":43.5781929807},{"name":"UNITÉ DE FORMATION ET DE RECHERCHE LANGUES ARTS MUSIQUE","lon":2.42597955226,"lat":48.6249351892},{"name":"INSTITUT MINES TÉLÉCOM","lon":2.34648523094,"lat":48.8264747771},{"name":"ANTENNE DE L'UNIVERSITÉ PARIS 13 NORD, À ARGENTEUIL","lon":2.2540135963,"lat":48.9469358336},{"name":"SERVICE COMMUNE DE TELE-ENSEIGNENEMENT DE L'UNIVERSITE DE ROUEN","lon":1.0680931326,"lat":49.4582821762},{"name":"INSTITUT UNIVERSITAIRE DE TECHNOLOGIE DE TREMBLAY-EN-FRANCE, UNIVERSITÉ PARIS 8","lon":2.56077409709,"lat":48.97572102},{"name":"INSTITUT UNIVERSITAIRE PROFESSIONNALISE BANQUE, FINANCES ET ASSURANCES","lon":1.07740206961,"lat":49.4438323479},{"name":"0","lon":2.45391549514,"lat":48.7955371282},{"name":"INSTITUT FRANÇAIS D'URBANISME, UNIVERSITÉ PARIS -EST MARNE LA VALLÉE","lon":2.58722416215,"lat":48.8376243501},{"name":"ANTENNE DE GENEVILLIERS DE L'ÉCOLE SUPÉRIEURE DU PROFESSORAT ET DE L'ÉDUCATION DE L'ACADÉMIE DE VERSAILLES","lon":2.30287484837,"lat":48.9355607922},{"name":"IUP GENIE MATHEMATIQUE ET INFORMATIQUE","lon":3.51377191347,"lat":50.3283198863},{"name":"ANTENNE DE PONTOISE DE L'UFR ECONOMIE ET GESTION, UNIVERSITÉ DE CERGY-PONTOISE","lon":2.08540334899,"lat":49.0434598289},{"name":"A","lon":3.14338548777,"lat":50.6097411676},{"name":"ANTENNE DE CERGY DE L'UFR LETTRES ET SCIENCES HUMAINES, UNIVERSITÉ DE CERGY PONTOISE","lon":2.07492971012,"lat":49.0383034742},{"name":"ANTENNE DE L'UFR DES SCIENCES JURIDIQUES POLITIQUES ET SOCIALES","lon":3.24642428547,"lat":50.1894591068},{"name":"UNITÉ DE FORMATION DE DE RECHERCHE SCIENCES TECHNIQUES UNIVERSITÉ DE CORSE","lon":9.15066554416,"lat":42.3056433352},{"name":"UNITÉ DE FORMATION ET DE RECHERCHE MEDECINE ODONTOLOGIE PHARMACIE, UNIVERSITÉ DE LILLE 2","lon":3.03663786492,"lat":50.6140007418},{"name":"IREM","lon":-61.5289765865,"lat":16.2241766006},{"name":"UFR DES SCIENCES JURIQUES POLITIQUES ET SOCIALES","lon":3.07005612129,"lat":50.6184538842},{"name":"DIRECTION DE L'ORIENTATION DES STAGES ET DE L'INSERTION PROFESSIONNELLE UNIVERSITÉ DE LA GUYANE","lon":-52.3262224658,"lat":4.94022012759},{"name":"UNIVERSITE DE LILLE 3","lon":3.12601053649,"lat":50.6292687243},{"name":"DEP DEV. AGRO INT LA REUNION","lon":55.4841882831,"lat":-20.901823748},{"name":"UFR LANGUES ET CULTURE DE L ANTIQUITE LITTERATURE  PHILOSOPHIE DOCUMENTATION","lon":3.12630508426,"lat":50.6268902211},{"name":"INSTITUT PRATIQUE DE JOURNALISME UNIVERSITÉ PARIS 3","lon":2.27469249327,"lat":48.8710687402},{"name":"ANTENNE D'ARRAS DE L'ÉCOLE SUPÉRIEURE DU PROFESSORAT ET DE L'ÉDUCATION DE L'ACADÉMIE DE LILLE","lon":2.78991983756,"lat":50.2838570722},{"name":"SERVICE COMMUN DE LA DOCUMENTATION UNIVERSITAIRE -BIBLIOTHÈQUE DES LANGUES ORIENTALES","lon":2.33219084215,"lat":48.8578474935},{"name":"SERVICE COMMUN DE LA DOCUMENTATION UNIVERSITAIRE DE L'UNIVERSITE TECHNOLOGIQUE DE COMPIEGNE","lon":2.81865888738,"lat":49.4151200649},{"name":"SERVICE COMMUN DE LA DOCUMENTATION UNIVERSITAIRE - UNIVERSITÉ PARIS 3","lon":2.354175419,"lat":48.8401483014},{"name":"UNIVERSITE D'ARTOIS","lon":2.79224969876,"lat":50.2836392467},{"name":"UNITÉ DE FORMATION ET DE RECHERCHE - MONDE ANGLOPHONE UNIVERSITÉ PARIS 3","lon":2.34195414669,"lat":48.8505871346},{"name":"UNITE DE FORMATION ET DE RECHERCHE DES SCIENCES ET TECHNIQUES         UNIVERSITE DE PAU ET DES PAYS DE L ADOUR","lon":-0.364211051936,"lat":43.3113515907},{"name":"UNITÉ DE FORMATION ET DE RECHERCHE FACULTÉ DE MÉDECINE - UNIVERSITÉ PARIS 5","lon":2.34118455848,"lat":48.8507726638},{"name":"UNIVERSITE DE PAU","lon":-0.364211051936,"lat":43.3113515907},{"name":"SECTION BIBLIOTHÈQUE DE L'UNIVERSITÉ DE FORMATION ET DE RECHERCHE  D'ODONTOLOGIE","lon":2.31426025413,"lat":48.8214511689},{"name":"FACULTÉ DE PHILOSOPHIE, UNIVERSITÉ DE STRASBOURG","lon":7.76272946788,"lat":48.5785983092},{"name":"SERVICE UNIVERSITAIRE DE MÉDECINE PRÉVENTIVE ET DE PROMOTION DE LA SANTÉ - UNIVERSITÉ PARIS DIDEROT","lon":2.3584737677,"lat":48.8816861897},{"name":"CENTRE UNIVERSITAIRE D'ENSEIGNEMENT DU JOURNALISME, UNIVERSITÉ DE STRASBOURG","lon":7.76166959446,"lat":48.5783983592},{"name":"ECOLE NATIONALE SUPÉRIEURE D'ARTS ET MÉTIERS  (DG)","lon":2.35750629061,"lat":48.8336629183},{"name":"ECOLE SUPÉRIEURE DU PROFESSORAT ET DE L'ÉDUCATION DE L'ACADÉMIE DE LYON","lon":4.82103082406,"lat":45.7736083503},{"name":"CENTRE REGIONAL ASSOCIE AU CNAM, ANNEXE DE LYON","lon":6.1080303882,"lat":46.2557088702},{"name":"INSTITUT DE PSYCHOLOGIE UNIVERSITE LYON 2","lon":4.91733822508,"lat":45.7219362033},{"name":"INSTITUT TECHNIQUE DE BANQUE CONSERVATOIRE NATIONAL DES ARTS ET MÉTIERS","lon":2.318314506,"lat":48.8774289419},{"name":"MAISON DES LANGUES UNIVERSITE LYON 3","lon":4.86141163321,"lat":45.7488122233},{"name":"CENTRE REGIONAL ASSOCIÉ AU CONSERVATOIRE NATIONAL DES ARTS ET MÉTIERS","lon":2.66011398986,"lat":48.5513770221},{"name":"ECOLE D'INGÉNIEURS POLYTECHNIQUE UNIVERSITÉ DE CHAMBÉRY","lon":5.85963734866,"lat":45.6483550618},{"name":"CONSERVATOIRE NATIONAL DES ARTS ET MÉTIERS         (CNAM)","lon":-1.40434949968,"lat":46.6769987395},{"name":"DÉPARTEMENT MATHÉMATIQUE ET INFORMATIQUE DE LA DÉCISION ET DES ORGANISATIONS UNIVERSITÉ PARIS 3","lon":2.27469249327,"lat":48.8710687402},{"name":"CENTRE NATIONAL DES ARTS ET DES MÉTIERS","lon":2.30705039772,"lat":48.909020534},{"name":"IUT NICE VALBONNE","lon":7.0716443738,"lat":43.6165721213},{"name":"MUSÉE DE L'HOMME, MUSÉUM NATIONAL D'HISTOIRE NATURELLE","lon":2.28716002757,"lat":48.8630018319},{"name":"UFR ODONTOLOGIE UNIVERSITÉ NICE","lon":7.28824237174,"lat":43.709547355},{"name":"MUSEUM NATIONAL D'HISTOIRE NATUREL HARMAS DE FABRE","lon":4.84074700692,"lat":44.1884046193},{"name":"ANTENNE SERVICE MEDECINE PREVENTINE INTERUNIVERSITAIRE UNIVERSITE AIX MARSEILLE 2","lon":5.4462961739,"lat":43.5134964349},{"name":"UNITE DE FORMATION ET DE RECHERCHE DE PSYCHOLOGIE, SOCIOLOGIE ET SCIENCES DE L'EDUCATION","lon":1.06768381473,"lat":49.4590452337},{"name":"ANTENNE UFR MANAGEMENT PUBLIC ET GOUVERNANCE TERRITORIALE, UNIVERSITE AIX MARSEILLE","lon":5.38014222588,"lat":43.2887970641},{"name":"PUBLICATIONS DE L'UNIVERSITE DE ROUEN","lon":1.0680931326,"lat":49.4582821762},{"name":"INSTITUT D'ADMINISTRATION DES ENTREPRISES, UNIVERSITE AIX MARSEILLE","lon":5.42332490068,"lat":43.5864539918},{"name":"INSTITUT SUPERIEUR D'ETUDES LOGISTIQUES DE L'UNIVERSITE DU HAVRE","lon":0.12147655059,"lat":49.4888489026},{"name":"MISSION FORMATION CONTINUE DE L UNVIVERSITE AIX-MARSEILLE","lon":5.43070952418,"lat":43.5249797842},{"name":"INSTITUT UNIVERSITAIRE DE TECHNOLOGIE DE MARNE LA VALLÉE, UNIVERSITÉ PARIS-EST MARNE-LA-VALLÉE","lon":2.58546469131,"lat":48.8373574545},{"name":"CENTRE UNIVERSITAIRE REGIONAL D ETUDES TERRITORIALES DE L UNIVERSITE AIX-MARSEILLE","lon":5.39173395501,"lat":43.3010948782},{"name":"ECOLE NATIONALE DES PONTS ET CHAUSSÉES","lon":2.60182588563,"lat":48.852678460999996},{"name":"DPT BANQUE - ASS IAE CHERBOURG","lon":-1.648325072,"lat":49.6337500109},{"name":"UNITÉ DE FORMATION  ET DE RECHERCHE DE SCIENCES  DE L' UNIVERSITÉ DE VERSAILLES SAINT QUENTIN EN YVELINES","lon":2.14953813705,"lat":48.810476209},{"name":"INSTITUT UNIVERSITAIRE  DE CAEN - SITE D IFS","lon":-0.353041649977,"lat":49.148993552},{"name":"UNITÉ DE FORMATION ET DE RECHERCHE EN CHIMIE DE L'UNIVERSITÉ LILLE1","lon":3.14431386989,"lat":50.6103530563},{"name":"ANTENNE DE L'INSTITUT UNIVERSITAIRE DE TECHNOLOGIE DE DIJON (AUXERRE), UNIVERSITE DE DIJON","lon":3.5945053668,"lat":47.7869244893},{"name":"IUP INGENERIE DE LA SANTE ILIS","lon":3.03800533282,"lat":50.6018585813},{"name":"SERVICE UNIVERSITAIRE DES ACTIVITES PHYSIQUES ET SPORTIVES DE L UNIVERSITE DE DIJON","lon":5.04197622666,"lat":47.3229771541},{"name":"SERVICE COMMUN DE LA DOCUMENTATION UNIVERSITAIRE DE L UNIVERSITE DE LILLE 3","lon":3.12630508426,"lat":50.6268902211},{"name":"INSTITUT UNIVERSITAIRE PROFESSIONNALISE DE GENIE DES SYSTEMES INDUSTRIELS DE L'UNIVERSITE DE DIJON","lon":5.07256334508,"lat":47.3126273404},{"name":"CENTRE DE RESSOURCES INFORMATIQUES","lon":3.12630508426,"lat":50.6268902211},{"name":"CENTRE UNIVERSITAIRE CONDORCET","lon":4.42291706676,"lat":46.8076919066},{"name":"ECOLE D' INGÉNIEURS SIGMA CLERMONT","lon":3.11421105415,"lat":45.7573645425},{"name":"INSTITUT SUPERIEUR D'INGENIEURS DE FRANCHE COMTE","lon":5.9961851298,"lat":47.2506579423},{"name":"ECOLE NATIONALE SUPERIEURE EN GENIE DES TECHNOLOGIES INDUSTRIELLES, UNIVERSITE DE PAU ET DES PAYS DE L ADOUR","lon":-0.363899801057,"lat":43.3199816524},{"name":"UNITE FORMATION ET RECHERCHE SCIENCES ET TECHNIQUES DE LA COTE BASQUE UNIVERSITE PAU ADOUR","lon":-1.50877489889,"lat":43.479257305},{"name":"FACULTÉ DE SCIENCES ÉCONOMIQUES ET DE GESTION, UNIVERSITÉ DE STRASBOURG","lon":7.77321358414,"lat":48.5832072163},{"name":"FACULTÉ DES SIENCES DU SPORT, UNIVERSITÉ DE STRASBOURG","lon":7.76265370754,"lat":48.5781687814},{"name":"ECOLE D'ORTOPHONIE FACULTÉ DE MÉDECINE","lon":7.74042252066,"lat":48.5769794396},{"name":"UNIVERSITE AMIENS","lon":2.26562609557,"lat":49.8766273756},{"name":"FACULTÉ DES LANGUES, UNIVERSITÉ DE STRASBOURG","lon":7.763228,"lat":48.579081},{"name":"UNITE DE FORMATION ET DE RECHERCHE DE MEDECINE ET PHARMACIE UNIVERSITE DE POITIERS","lon":0.379410011512,"lat":46.560625150999996},{"name":"UNITÉ DE FORMATION ET DE RECHERCHE DES SCIENCES ET TECHNIQUES UNIVERSITÉ DE MULHOUSE","lon":7.30700846528,"lat":47.7279751376},{"name":"UNITE DE FORMATION ET DE RECHERCHE DES SCIENCES HUMAINES UNIVERSITE DE POITIERS","lon":0.341226784094,"lat":46.586080881},{"name":"INSTITUT NATIONAL D'ENSEIGNEMENT SUPERIEUR ET DE  RECHERCHE EN ALIMENTATION, SANTE ANIMALE, SCIENCES AGRONOMIQUES ET DE L'ENVIRONNEMENT","lon":4.70841942751,"lat":45.7927983398},{"name":"UNITÉ DE FORMATION ET DE RECHERCHE DE LETTRES ET LANGUES UNIVERSITÉ DE POITIERS","lon":0.382177627229,"lat":46.570405975},{"name":"UNITE DE FORMATION ET DE RECHERCHE SCIENCES ECONOMIQUES ET GESTION UNIVERSITE LYON 2","lon":4.83665564414,"lat":45.7512682076},{"name":"MAISON DES LANGUES DE L'UNIVERSITÉ DE POITIERS","lon":0.384407369916,"lat":46.5665496062},{"name":"UNITÉ DE FORMATION ET DE RECHERCHE SCIENCES EXACTES ET TECHNIQUES, UNIVERSITÉ LE MANS","lon":0.157486721257,"lat":48.0151995608},{"name":"SERV PEDAG POUR ELEVES MALADES","lon":3.33392681762,"lat":46.5689634107},{"name":"INSTITUT UNIVERSITAIRE DE TECHNOLOGIE UNIVERSITÉ DE CHAMBÉRY","lon":6.15400473945,"lat":45.9208086044},{"name":"SERVICE COMMUN DE MEDECINE PRÉVENTIVE ET DE PROMOTION DE LA SANTE, UNIVERSITE DE LIMOGES","lon":1.22930829595,"lat":45.8166964828},{"name":"ANTENNE INSTITUT D'ADMINISTRATION DES ENTREPRISES SAVOIE MONT BLANC DE L'UNIVERSITÉ DE CHAMBÉRY","lon":5.92078612581,"lat":45.5662807914},{"name":"SERVICE COMMUN INFORMATIQUE, UNIVERSITE DE LIMOGES","lon":1.22843655038,"lat":45.835672641},{"name":"UFR SCIENCES SOPHIA UNIVERSITÉ NICE","lon":7.05459023792,"lat":43.6115711323},{"name":"INSTITUT DE FORMATION  ING PARIS SUD ORSAY UNIVERSITÉ PARIS 11","lon":2.17091417036,"lat":48.7107338099},{"name":"MÉTIERS DU SPORT ET DES ACTIVITÉS DE LOISISRS","lon":7.09543811274,"lat":43.6286650849},{"name":"UNIVERSITÉ  EVRY  VAL D' ESSONNE","lon":2.42597955226,"lat":48.6249351892},{"name":"SERVICE COMMUN DE FORMATION CONTINUE DE L UNIVERSITE AIX-MARSEILLE","lon":5.3589219135,"lat":43.2928127265},{"name":"INSTITUT DE PRÉPARSTION À L'ADMINISTRATION GÉNÉRALE","lon":2.21237259098,"lat":48.9046663485},{"name":"ANTENNE UNITE DE FORMATION ET DE RECHERCHE, ARTS, LETTRES, LANGUES, SCIENCES HUMAINES, UNIVERSITE AIX MARSEILLE","lon":5.37905194597,"lat":43.3043554952},{"name":"SERVICE D'ADMINISTRATION DE LA RECHERCHE DE L'UNIVERSITÉ PARIS OUEST  NANTERRE LA DÉFENSE","lon":2.2091096772,"lat":48.9048274111},{"name":"IUT AIX MARSEILLE AMU","lon":5.43798874829,"lat":43.2348800026},{"name":"UNITÉ DE FORMATION ET DE RECHERCHE DE SCIENCES ÉCONOMIQUES ET DE GESTION, UNIVERSITÉ PARIS 13","lon":2.3383349273,"lat":48.9565953931},{"name":"INSTITUT UNIVERSITAIRE DE TECHNOLOGIE DE CAEN, UNIVERSITE DE CAEN","lon":-0.366089265314,"lat":49.2123285432},{"name":"UNITÉ DE FORMATION ET DE RECHERCHE ÉTUDES, RECHERCHES ET INGÉNIERIE EN TERRITOIRE - ENVIRONNEMENTS - SOCIÉTÉS (ERITES), UNIVERSITÉ PARIS 8","lon":2.36505276248,"lat":48.9441158637},{"name":"ANTENNE D'UNITE DE FORMATION ET DE RECHERCHE DES LANGUES VIVANTES ETRANGERES","lon":-1.64533192111,"lat":49.63326594},{"name":"SERVICE COMMUN DES ACTIVITÉS PHYSIQUES ET SPORTIVES DE L'UNIVERSITÉ PARIS 12","lon":2.44238768499,"lat":48.7887986975},{"name":"ESIX NORMANDIE ST LO","lon":-1.09153310005,"lat":49.114416489},{"name":"ANTENNE DE NEUVILLE DE L'INSTITUT UNIVERSITAIRE DE TECHNOLOGIE, UNIVERSITÉ DE CERGY-PONTOISE","lon":2.06410868243,"lat":49.0133852442},{"name":"SITE UNIVERSITAIRE DU CREUSOT DE L'UNIVERSITE DE   DIJON","lon":4.42378491383,"lat":46.8077261913},{"name":"INSTITUT UNIVERSITAIRE DE TECHNOLOGIE DE CERGY-PONTOISE UNIVERSITÉ CERGY-PONTOISE","lon":2.07464940765,"lat":49.0172743902},{"name":"SITE UNIVERSITAIRE DE NEVERS DE L'UNIVERSITE DE DIJON","lon":3.5945053668,"lat":47.7869244893},{"name":"ANTENNE DE NEUVILLE DE L'UFR SCIENCES ET TECHNIQUES, UNIVERSITÉ DE CERGY-PONTOISE","lon":2.06410868243,"lat":49.0133852442},{"name":"UNIVERSITÉ DE BESANÇON - JURA","lon":5.546048,"lat":46.672686},{"name":"UNITÉ DE FORMATION ET DE RECHERCHE LETTRES LANGUES SCIENCES HUMAINES UNIVERSITÉ DE CORSE","lon":9.15213785086,"lat":42.3065361305},{"name":"ECOLE SUPÉRIEURE DU PROFESSORAT ET DE L'ÉDUCATION DE L'ACADÉMIE DE CORSE","lon":9.15066554416,"lat":42.3056433352},{"name":"SERVICE UNIVERSITAIRE DE MÈDECINE PRÉVENTIVE","lon":-61.532260604,"lat":16.2248509582},{"name":"ECOLE SUPÉRIEURE DU PROFESSORAT ET DE L'ÉDUCATION DE L'ACADÉMIE DE MARTINIQUE","lon":-61.0869009453,"lat":14.6027212506},{"name":"UNITÉ DE FORMATION ET DE RECHERCHE DES SCIENCES DE LA SANTÉ SIMONE VEIL, DE L'UNIVERSITÉ DE SAINT QUENTIN EN YVELINES","lon":2.03971651914,"lat":48.7839449278},{"name":"SECTION MARTINIQUE DE L INSTITUT DE RECHERCHE SUR  L ENSEIGNEMENT DES MATHEMATIQUES, UNIVERSITE DES ANTILLES ET DE LA GUYANE","lon":-61.0824666065,"lat":14.6020016398},{"name":"INSTITUT NATIONAL UNIVERSITAIRE JEAN-FRANÇOIS CHAMPOLLION","lon":2.13899763948,"lat":43.9199821869},{"name":"SERVICE COMMUN DE DOCUMENTATION DE L'UNIVERSITÉ DE LA GUYANE","lon":-52.3222035974,"lat":4.94082416757},{"name":"UFR LETTRES ARTS SC HUMAINES UNIVERSITÉ TOULON","lon":6.01765691158,"lat":43.1363803922},{"name":"SERVICE COMMUN DE LA DOCUMENTATION DE L'UNIVERSITÉ DE LA RÉUNION","lon":55.4841882831,"lat":-20.901823748},{"name":"INSTITUT D'ADMINISTRATION DES ENTREPRISES - UNIVERSITÉ DE POITIERS","lon":0.344529361224,"lat":46.5881882606},{"name":"FACULTE DES LETTRES ,ANTENNE DELOCALISEE DU TAMPON","lon":55.5069590759,"lat":-21.2692455718},{"name":"MÉDIA CENTRE OUEST","lon":0.38167984189299997,"lat":46.5718739213},{"name":"CENTRE UNIVERSITAIRE DE FORMATION ET DE RECHERCHE DE MAYOTTE","lon":45.187189,"lat":-12.845431},{"name":"FACULTE DE DROIT, ANTENNE UFR DE DROIT ET DES SCIENCES ECONOMIQUES DE L'UNIVERSITE DE LIMOGES","lon":1.50958248026,"lat":45.154468942},{"name":"ECOLE NATIONALE SUPÉRIEURE D'ELECTROTECHNIQUE   D'ELECTRONIQUE D'INFORMATIQUE D'HYDRAULIQUE ET   DES TÉLÉCOMMUNICATIONS INSTITUT NAL POLYTECHNIQUE","lon":1.45547179632,"lat":43.6021315584},{"name":"SERVICE COMMUN STATION UNIVERSITAIRE DU LIMOUSIN, UNIVERSITE DE LIMOGES","lon":2.14559544239,"lat":45.5346157727},{"name":"DÉPARTEMENT CYCLE PRÉPARATOIRE POLYTECHNIQUE       INSTITUT NATIONAL POLYTECHNIQUE","lon":1.50406045764,"lat":43.5540704151},{"name":"ANTENNE DE GUERET DE L'ÉCOLE SUPERIEURE DU PROFESSORAT ET DE L'ÉDUCATION DE L'ACADÉMIE DE LIMOGES","lon":1.86375463829,"lat":46.1725008449},{"name":"SERVICE COMMUN DE DOCUMENTATION UNIVERSITAIRE    INSTITUT NATIONAL POLYTECHNIQUE DE TOULOUSE","lon":1.50483820584,"lat":43.5542809068},{"name":"SERVICE COMMUN DE LA DOCUMENTATION UNIVERSITAIRE DE PARIS11","lon":2.17939016679,"lat":48.6980781251},{"name":"INSTITUT UNIVERSITAIRE DE TECHNOLOGIE","lon":0.5771334239629999,"lat":43.6469269053},{"name":"UNITÉ DE FORMATION DE RECHERCHE DE SCIENCES  UNIVERSITÉ PARIS 11","lon":2.17939016679,"lat":48.6980781251},{"name":"SERVICE COMMUN DE LA COMMUNICATION MULTIMÉDIA      UNIVERSITÉ TOULOUSE 3","lon":1.4573091166499998,"lat":43.5590387297},{"name":"INSTITUT UNIVERSITAIRE PROFESSIONNALISÉ MANAGEMENT ET  GESTION DES  ENTREPRISES - UNIVERSITÉ D'EVRY","lon":2.43224369124,"lat":48.6319976723},{"name":"COMMUNAUTÉ D'UNIVERSITÉS ET ÉTABLISSEMENTS D'AQUITAINE","lon":-0.577665378667,"lat":44.8248809686},{"name":"INSTITUT UNIVERSITAIRE DE TECHNOLOGIE, UNIVERSITÉ PARIS 8","lon":2.46380429125,"lat":48.8624055346},{"name":"ANT UFR STAPS","lon":-2.74175859199,"lat":48.5128992425},{"name":"ECOLE NATIONALE VETERINAIRE D'ALFORT","lon":2.42112154767,"lat":48.8142744046},{"name":"ECOLE D'INGÉNIEURS EN SYSTÈMES AVANCÉS ET RÉSEAUX","lon":4.91361470701,"lat":44.9172847169},{"name":"ECOLE NATIONALE SUPÉRIEURE DE L'ÉLECTRONIQUE ET DE SES APPLICATIONS DE CERGY","lon":2.0715985790399998,"lat":49.0387993236},{"name":"UNITÉ DE FORMATION ET DE RECHERCHE DE SCIENCES HUMAINES - UNIVERSITÉ GRENOBLE ALPES","lon":5.76790497011,"lat":45.1908165178},{"name":"INSTITUT FRANCAIS D'ARCHEOLOGIE ORIENTALE DU CAIRE","lon":31.2352879,"lat":30.0328599},{"name":"TELECOM SAINT ETIENNE","lon":4.38714649486,"lat":45.4534618447},{"name":"SERVICE UNIVERSITAIRE DES ACTIVITÉS PHYSIQUES ET SPORTIVES","lon":9.15541803628,"lat":42.3061080009},{"name":"CENTRE DE MICROSCOPIE ELECTRONIQUE STEPHANOIS      UNIVERSITE DE SAINT ETIENNE","lon":4.3887913016799995,"lat":45.4107819861},{"name":"AUTRE COMPOSANTE ENSEIGNEMENT UNIVERSITÉ DE LA GUYANE","lon":-52.3025072359,"lat":4.92930902228},{"name":"UNITÉ DE FORMATION ET DE RECHERCHE SCIENCES PHARMACEUTIQUES ET BIOLOGIQUES, UNIVERSITÉ DE NANTES","lon":-1.55545810104,"lat":47.2110279393},{"name":"FACULTÉ DES LETTRES ET SCIENCES HUMAINES","lon":55.4841882831,"lat":-20.901823748},{"name":"ANTENNE DU MANS DE L'ÉCOLE SUPÉRIEURE DU PROFESSORAT ET DE L'ÉDUCATION DE L'ACADÉMIE DE NANTES","lon":0.15575660193899998,"lat":48.0176511866},{"name":"ANTENNE DELOCALISEE DU TAMPON","lon":55.5069799843,"lat":-21.2696567625},{"name":"ECOLE PRIMAIRE ANNEXE MOLIÈRE","lon":0.202936035606,"lat":48.0213847078},{"name":"ANTENNE DE MOULINS DE L'ÉCOLE SUPÉRIEURE DU PROFESSORAT ET DE L'ÉDUCATION DE L'ACADÉMIE DE CLERMONT-FERRAND","lon":3.33560770606,"lat":46.5743503685},{"name":"SERVICE COMMUN INFORMATION","lon":1.9404630857199998,"lat":47.845639272},{"name":"ANTENNE DU PUY EN VELAY DE L'ÉCOLE SUPÉRIEURE DU PROFESSORAT ET DE L'ÉDUCATION DE L'ACADÉMIE DE CLERMONT-FERRAND","lon":3.8804784829,"lat":45.0402260403},{"name":"ANTENNE DE CHARTRES DE POLYTECH ORLÉANS - UNIVERSITÉ D'ORLÉANS","lon":1.48717,"lat":48.435559},{"name":"INSTITUT UNIVERSITAIRE DE TECHNOLOGIE DE FIGEAC    UNIVERSITÉ TOULOUSE 2","lon":2.01053825856,"lat":44.613319523},{"name":"ANTENNE DE BOURGES DE L'ÉCOLE SUPÉRIEURE DU PROFESSORAT ET DE L'ÉDUCATION DE L'ACADÉMIE D'ORLÉANS-TOURS","lon":2.41874294741,"lat":47.0825431038},{"name":"INSTITUT SUPÉRIEUR COULEUR, IMAGE, DESIGN DE L'UNIVERSITÉ TOULOUSE 2","lon":1.36081921294,"lat":44.0099758056},{"name":"ANTENNE INSTITUT UNIVERSITAIRE DE TECHNOLOGIE D'ANGERS","lon":-0.86340540807,"lat":47.049119567299996},{"name":"ANTENNE D'AUCH DE L'ÉCOLE SUPÉRIEURE DU PROFESSORAT ET DE L'ÉDUCATION DE L'ACADÉMIE DE TOULOUSE","lon":0.577094448902,"lat":43.6464705272},{"name":"IUT REIMS (CHÂLONS EN CHAMPAGNE)","lon":4.3567803236,"lat":48.959421184199996},{"name":"IUP GÉNIE ÉLECTRIQUE ET INFORMATIQUE INDUSTRIELLE  UNIVERSITÉ TOULOUSE 3","lon":1.46706046967,"lat":43.5623661324},{"name":"SERVICE D'ENSEIGNEMENT A DISTANCE, UNIVERSITÉ DE REIMS","lon":4.00288270561,"lat":49.236839802},{"name":"IUP BIOTECHNOLOGIES ET BIO-INDUSTRIE               UNIVERSITÉ TOULOUSE 3","lon":1.4667766335099999,"lat":43.5619193689},{"name":"ANTENNE DE CHARLEVILLE-MÉZIÈRES DE L'ÉCOLE SUPÉRIEURE DU PROFESSORAT ET DE L'ÉDUCATION DE L'ACADÉMIE DE REIMS","lon":4.71856646219,"lat":49.737821398},{"name":"SERVICE COMMUN UNIVERSITAIRE FORMATION CONTINUE UNIVERSITE BORDEAUX 3","lon":-0.61505808481,"lat":44.801464485},{"name":"ECOLE NATIONALE SUPÉRIEURE D'ELECTRICITÉ ET DE MÉCANIQUE DE L'UNIVERSITÉ DE LORRAINE","lon":6.14496122692,"lat":48.6510670519},{"name":"IUP GENIE CIVIL INFRASTRUCTURE UNIVERSITE BORDEAUX","lon":-0.602020249463,"lat":44.8062546729},{"name":"ECOLE EUROPÉENNE D'INGÉNIEURS EN GÉNIE DES MATÉRIAUX DE L'UNIVERSITÉ DE LORRAINE","lon":6.19324341119,"lat":48.6954415034},{"name":"CENTRE REGIONAL DE FORMATION AUX CARRIERES DES BIBLIOTHEQUES DU LIVRE ET DE LA DOCUMENTATION","lon":-0.619562511889,"lat":44.7897407285},{"name":"CENTRE DE FORMATION AUX CARRIÈRES DES BIBLIOTHÈQUES DU LIVRE ET DE LA DOCUMENTATION DE L'UNIVERSITÉ DE LORRAINE","lon":6.16210756513,"lat":48.6826211886},{"name":"IUT DE BORDEAUX - SITE DE PÉRIGUEUX","lon":0.7176469999999999,"lat":45.196524},{"name":"ANTENNE DE NANCY-MAXÉVILLE DE L'ECOLE SUPÉRIEURE DU PROFESSORAT ET DE L'EDUCATION DE L'ACADÉMIE DE NANCY-METZ DE L'UNIVERSITÉ DE LORRAINE","lon":6.16501000195,"lat":48.704147384},{"name":"INSTITUT UNIVERSITAIRE DE TECHNOLOGIE  UNIVERSITE BORDEAUX","lon":-0.6095884898589999,"lat":44.8943460705},{"name":"SERVICE COMMUN DE LA DOCUMENTATION DE L'UNIVERSITE DE BRETAGNE SUD A LORIENT","lon":-3.38941204831,"lat":47.7455886398},{"name":"INSTITUT DES TECHNOSCIENCES DE L'INFORMATION ET DE LA COMMUNICATION, UNIVERSITE MONTPELLIER 3","lon":3.86930585206,"lat":43.6328176851},{"name":"ANTENNE DE L'INSTITUT DES SCIENCES ET TECHNIQUES UNIVERSITÉ DE VALENCIENNES","lon":3.94083469683,"lat":50.2833314317},{"name":"INSTITUT UNIVERSITAIRE TECHNOLOGIE DE NÎMES, UNIVERSITAIRE DE MONTPELLIER","lon":4.3311287536,"lat":43.8185977599},{"name":"IUP EN GENIE CIVIL ET INFRASTRUCTURES","lon":3.5145781013799997,"lat":50.3271897399},{"name":"UNITE DE FORMATION ET DE RECHERCHE D'ODONTOLOGIE, UNIVERSITE DE RENNES 1","lon":-1.6984405475000002,"lat":48.1174921828},{"name":"INSTITUT DES SCIENCES JURIDIQUES ECONOMIQUES ET DE GESTION","lon":3.52890431696,"lat":50.3647934175},{"name":"UNIVERSITÉ RENNES 1","lon":-1.67302183427,"lat":48.1159730993},{"name":"A","lon":3.13711007597,"lat":50.6095221001},{"name":"INSTITUT RECHERCHE INFORMATIQUE SYST. ALEATOIRES","lon":-1.64533401982,"lat":48.1188134595},{"name":"INSTITUT DE RECHERCHE DANS L'ENSEIGNEMENT DES MATHEMATIQUES","lon":3.13885162039,"lat":50.6089116854},{"name":"ANTENNE DE BREST DE L'ÉCOLE SUPÉRIEURE DU PROFESSORAT ET DE L'ÉDUCATION DE L'ACADÉMIE DE RENNES","lon":-4.4947122726,"lat":48.4007493936},{"name":"ECOLE POLYTECHNIQUE UNIVERSITAIRE DE LILLE","lon":3.13666519046,"lat":50.6077402328},{"name":"UFR DE SCIENCES ET TECHNIQUES","lon":0.701385048227,"lat":47.3564885525},{"name":"INSTITUT DE CHIMIE PHARMACEUTIQUE UNIVERSITÉ DE LILLE 2","lon":3.03950844668,"lat":50.6052918194},{"name":"SERVICE COMMUN UNIVERSITAIRE D'INFORMATION ET D'ORIENTATION","lon":0.681723141158,"lat":47.3965833497},{"name":"UFR SCIENCES DE L'EDUCATION ET DES PRATIQUES DE FORMATION","lon":3.12784287236,"lat":50.6285300573},{"name":"SERVICE COMMUN DE MEDECINE PREVENTIVE","lon":0.696028046133,"lat":47.3824087716},{"name":"SERVICE UNIVERSITAIRE DE MEDECINE PREVENTIVE ET DE PROMOTION DE LA SANTE  UNIVERSITE DE PAU ET DES PAYS DE L ADOUR","lon":-0.36468731216399997,"lat":43.3191071648},{"name":"UNITÉ DE FORMATION ET DE RECHERCHE LANGUES ETRANGÉRES - UNIVERSITÉ GRENOBLE ALPES","lon":5.72628081679,"lat":45.1868757226},{"name":"DIRECTION DE L'ORIENTATION, DES STAGES  ET DE L'INSERTION PROFESSIONNELLE, UNIVERSITE DE PERPIGNAN","lon":2.90181015325,"lat":42.682877065},{"name":"INSTITUT DE MEDECINE DU TRAVAIL ET D'ERGONOMIE     UNIVERSITE DE SAINT ETIENNE","lon":4.39328262712,"lat":45.4131623628},{"name":"INSTITUT NATIONALE DES SCIENCES APPLIQUÉES DE STRASBOURG","lon":7.76463716786,"lat":48.5816660463},{"name":"UNIVERSITÉ DE NANTES","lon":-1.55586883614,"lat":47.2097222391},{"name":"CENTRE EUROPÉEN D'ENSEIGNEMENT ET DE RECHERCHE EN ETHIQUE","lon":7.74781632684,"lat":48.5766707939},{"name":"ECOLE SUPÉRIEURE DU PROFESSORAT ET DE L'ÉDUCATION DE L'ACADÉMIE DE NANTES","lon":-1.55186741947,"lat":47.2511822093},{"name":"CENTRE UNIVERSITAIRE DE FORMATION D'ENSEIGNANTS DE FORMATEURS DE L'UNIVERSITÉ DE MULHOUSE","lon":7.30877087927,"lat":47.7308000751},{"name":"INSTITUT UNIVERSITAIRE DE TECHNOLOGIE DE LA ROCHE/YON, UNIVERSITÉ DE NANTES.","lon":-1.4049847682,"lat":46.6770608986},{"name":"INSTITUT DE RECHERCHE ENSEIGNEMENT DES MATHEMATIQUES","lon":4.8673030043,"lat":45.7814504379},{"name":"ANTENNE DE LA FACULTÉ DES LANGUES ET CULTURES ÉTRANGÈRES, UNIVERSITÉ DE NANTES","lon":-1.40623034495,"lat":46.6773457886},{"name":"ECOLE NORMALE SUPÉRIEURE DE LYON","lon":4.83400940673,"lat":45.7330561677},{"name":"INSTITUT MUNICIPAL D'EDUCATION PERMANENTE","lon":2.39925063312,"lat":47.0850850444},{"name":"ANTENNE UNITÉ DE FORMATION ET DE RECHERCHE DROIT SC ÉCONOMIQUES, UNIVERSITÉ LE MANS, CENTRE UNIVERSITAIRE MAYENNE-LAVAL","lon":-0.754838741817,"lat":48.0875772333},{"name":"ANTENNE DE CHÂTEAUROUX DE L'ÉCOLE SUPÉRIEURE DU PROFESSORAT ET DE L'ÉDUCATION DE L'ACADÉMIE D'ORLÉANS-TOURS","lon":1.67869482039,"lat":46.8182138715},{"name":"CENTRE UNIVERSITAIRE D'ÉDUCATION PERMANENTE, UNIVERSITÉ LE MANS","lon":0.154922063969,"lat":48.0181703974},{"name":"UNIVERSITÉ D'ANGERS","lon":-0.549936885083,"lat":47.4770921719},{"name":"INSTITUT UNIVERSITAIRE DE TECHNOLOGIE UNIVERSITÉ DE CHAMBÉRY","lon":5.85963734866,"lat":45.6483550618},{"name":"ÉCOLE NATIONALE SUPÉRIEURE D'INGÉNIEURS DE REIMS (ESIREIMS)","lon":4.06416635536,"lat":49.2378456492},{"name":"SERVICE COMMUN DE LA DOCUMENTATION UNIVERSITAIRE - UNIVERSITÉ PARIS 1","lon":2.36480572271,"lat":48.8269494272},{"name":"CENTRE DE FORMATION D'APPRENTIS DE L'ENSEIGNEMENT SUPÉRIEUR DE CHAMPAGNE ARDENNE","lon":4.06197996717,"lat":49.2467126587},{"name":"SERVICE GÉNÉRAL RECHERCHE ET PUBLICATIONS - UNIVERSITÉ PARIS 1","lon":2.34487583162,"lat":48.8468015806},{"name":"UNITÉ DE FORMATION ET DE RECHERCHE DE CHIRURGIE DENTAIRE DE L'UNIVERSITÉ DE LORRAINE","lon":6.19108329178,"lat":48.6827391861},{"name":"CENTRE AUDIO VISUEL D'ETUDES JURIDIQUES","lon":2.34645796874,"lat":48.8360385515},{"name":"INSTITUT RÉGIONAL DU TRAVAIL DE L'UNIVERSITÉ DE LORRAINE","lon":6.1593634931,"lat":48.6969328885},{"name":"ECOLE SUPÉRIEURE D'INTERPRÈTES ET DE TRADUCTEURS UNIVERSITÉ PARIS 3","lon":2.27469249327,"lat":48.8710687402},{"name":"UNITÉ DE FORMATION ET DE RECHERCHE DE MÉCANIQUE, INFORMATIQUE, MATHÉMATIQUES DE L'UNIVERSITÉ DE LORRAINE","lon":6.16281109652,"lat":49.1203275011},{"name":"UNITÉ DE FORMATION ET DE RECHERCHE - LITTÉRATURE ET LINGUISTIQUE FRANÇAISES ET LATINES UNIVERSITÉ PARIS 3","lon":2.354175419,"lat":48.8401483014},{"name":"IUT DE THIONVILLE-YUTZ DE L'UNIVERSITÉ DE LORRAINE","lon":6.17431605247,"lat":49.3500584873},{"name":"UNITÉ DE FORMATION ET DE RECHERCHE - ÉTUDES ANGLOPHONES UNIVERSITÉ PARIS 4","lon":2.34280602515,"lat":48.8483065485},{"name":"INSTITUT UNIVERSITAIRE DE TECHNOLOGIE DE SAINT-DIÉ DE L'UNIVERSITÉ DE LORRAINE","lon":6.94186034552,"lat":48.2899520328},{"name":"UNITÉ DE FORMATION ET DE RECHERCHE - PHYSIQUE FOONDAMENTALE ET APPLIQUÉE UNIVERSITÉ PARIS 6","lon":2.35455041277,"lat":48.8466149367},{"name":"ANTENNE DE BAR LE DUC DE L'ÉCOLE SUPÉRIEURE DU PROFESSORAT ET DE L'ÉDUCATION DE L'ACADÉMIE DE NANCY-METZ","lon":5.15397685533,"lat":48.7626065782},{"name":"OBSERVATOIRE DES SCIENCES DE L'UNIVERS","lon":2.35455041277,"lat":48.8466149367},{"name":"UNITE DE FORMATION ET DE RECHERCHE LETTRES, SCIENCES HUMAINES ET SOCIALES A LORIENT, UNIVERSITE DE BRETAGNE SUD","lon":-3.38514775838,"lat":47.7429800671},{"name":"CENTRE D'ACCOMPAGNEMENT DES PRATIQUES ENSEIGNANTES - UNIVERSITÉ PARIS DIDEROT","lon":2.38061985571,"lat":48.8297403837},{"name":"UNITE DE FORMATION ET DE RECHERCHE DE SCIENCES ET SCIENCES DE L'INGENIEUR A VANNES, UNIVERSITE DE BRETAGNE SUD","lon":-2.7454010613,"lat":47.6451039172},{"name":"INSTITUT UNIVERSITAIRE DE TECHNOLOGIE - UNIVERSITÉ PARIS DIDEROT","lon":2.35517899155,"lat":48.8462531864},{"name":"SERVICE DE MEDECINE PREVENTIVE UNIVERSITAIRE DE L'UNIVERSITE DE BRETAGNE SUD A VANNES","lon":-2.7616071339,"lat":47.6551055553},{"name":"INSTITUT NATIONAL DU SPORT ET DE L'EDUCATION PHYSIQUE","lon":2.45123967377,"lat":48.8339210438},{"name":"SERVICE DES ACTIVITES PHYSIQUES ET SPORTIVES DE L'UNIVERSITE DE BRETAGNE SUD A LORIENT","lon":-3.38607269107,"lat":47.7421989785},{"name":"CENTRE RÉGIONAL ASSOCIÉ AU CNAM","lon":6.12949529618,"lat":45.8992443278},{"name":"INSTITUT DU MARKETING ET DU MANAGEMENT DE LA DISTRIBUTION DE L'UNIVERSITE LILLE 2","lon":3.17412785317,"lat":50.6903563138},{"name":"CENTRE RÉGIONAL ASSOCIÉ AU CNAM DE L'UNIVERSITÉ DE LORRAINE","lon":5.15714894189,"lat":48.777318314},{"name":"CELLULE DES RELATIONS UNIVERSITE ENTREPRISES","lon":3.12630508426,"lat":50.6268902211},{"name":"CENTRE RÉGIONAL ASSOCIÉ AU CNAM","lon":7.73555928275,"lat":48.5285766037},{"name":"UFR MATHEMATIQUES, INFORMATIQUE, MANAGEMENT ET ECONOMIE","lon":3.12630508426,"lat":50.6268902211},{"name":"UNIVERSITE CLERMONT FERRAND 2","lon":3.09242367122,"lat":45.7756518261},{"name":"INSTITUT SUPÉRIEUR DE COMMERCE INTERNATIONAL DE DUNKERQUE CÔTE D'OPALE","lon":2.37090593754,"lat":51.0384987355},{"name":"INSTITUT NATIONAL DE MÉTROLOGIE CONSERVATOIRE NATIONAL DES ARTS ET MÉTIERS","lon":2.35463366137,"lat":48.8669613986},{"name":"ANTENNE UFR LETTRES SCIENCES HUMAINES - BAYONNE","lon":-1.48680520765,"lat":43.4816933977},{"name":"INSTITUT SCIENTIFIQUE ET TECHNIQUE DE LA NUTRITION ET DE L'ALIMENTATION CONSERVATOIRE NATIONAL DES ARTS ET MÉTIERS","lon":2.35646054943,"lat":48.8659522801},{"name":"SERVICE COMMUN DE LA DOCUMENTATION UNIVERSITAIRE DE L UNIVERSITE DE PAU PAYS ADOUR","lon":-0.36986275088,"lat":43.3007588874},{"name":"UNIVERSITÉ ET INP HORS ÉCOLES D'INGÉNIEURS","lon":2.35646054943,"lat":48.8659522801},{"name":"ANTENNE SERVICE COMMUN FORMATION CONTINUE UNIVERSITE PAU PAYS DE L'ADOUR","lon":-1.48680520765,"lat":43.4816933977},{"name":"ECOLE NATIONALE DES CHARTES","lon":2.34297470148,"lat":48.8486546274},{"name":"ANTENNE DE L'UNITE DE FORMATION ET DE RECHERCHE DES LETTRES ET SCIENCES HUMAINES, UNIVERSITE DE PERPIGNAN","lon":3.02269569729,"lat":43.1840754753},{"name":"ANTENNE DELOCALISEE DU SERVICE COMMUN DE LA DOCUMENTATION UNIVERSITAIRE - ANTENNE D'EVREUX UNIVERSITE DE ROUEN","lon":1.15254940235,"lat":49.023461684},{"name":"INSTITUT D'ELECTRONIQUE DU SOLIDE ET DES SYSTEMES","lon":7.7385308327,"lat":48.5189936855},{"name":"ANTENNE D'EVREUX DE L'ÉCOLE SUPÉRIEURE DU PROFESSORAT ET DE L'ÉDUCATION DE ROUEN","lon":1.13818469886,"lat":49.0312140908},{"name":"FACULTÉ DES ARTS, UNIVERSITÉ DE STRASBOURG","lon":7.76271118236,"lat":48.5783377014},{"name":"INSTITUT UNIVERSITAIRE DE TECHNOLOGIE DU HAVRE UNIVERSITE DU HAVRE","lon":0.161629301108,"lat":49.5139843034},{"name":"INSTITUT D'ETUDES POLITIQUES DE LYON","lon":4.83579715672,"lat":45.7470370388},{"name":"ANTENNE DE BEAUVAIS DE L'ÉCOLE SUPÉRIEURE DU PROFESSORAT ET DE L'ÉDUCATION DE L'ACADÉMIE D'AMIENS","lon":2.0806777311799998,"lat":49.4375547133},{"name":"UNITE DE FORMATION ET DE RECHERCHE LANGUES VIVANTES ETRANGERES UNIVERSITE LYON 2","lon":4.83797789314,"lat":45.7503657493},{"name":"INSTITUT D'ADMINISTRATION DES ENTREPRISES","lon":6.01765691158,"lat":43.1363803922},{"name":"UNIVERSITE LYON 3","lon":4.83740345143,"lat":45.7518568143},{"name":"UNITE DE FORMATION ET DE RECHERCHE DES SCIENCES  HUMAINES ET SOCIALESDE L UNIVERSITE D AVIGNON","lon":4.81781010745,"lat":43.949897505},{"name":"UNITÉ DE FORMATION ET DE RECHERCHE DE DROIT, DES SCIENCES ECONOMIQUES ET DE GESTION, UNIVERSITÉ LE MANS","lon":0.159243249896,"lat":48.0161055562},{"name":"ANTENNE INSTITUT UNIVERSITAIRE DE TECHNOLOGIE DE POITIERS","lon":0.5349930558279999,"lat":46.834975549},{"name":"CENTRE DE SANTÉ MÉDICO-PSYCHO-SOCIAL, UNIVERSITÉ LE MANS","lon":0.157486721257,"lat":48.0151995608},{"name":"ANTENNE DE L UNITE DE FORMATION ET DE RECHERCHE DE DROIT ET SCIENCES SOCIALES DE L UNIVERSITE DE POITIERS","lon":-0.217609052676,"lat":45.6152541443},{"name":"FORMATION CONTINUE PANTHÉON-SORBONNE - UNIVERSITÉ PARIS 1","lon":2.34646436486,"lat":48.8505237183},{"name":"CENTRE NATIONAL D'ENSEIGNEMENT A DISTANCE","lon":4.82018162414,"lat":45.7797127808},{"name":"UNIVERSITÉ PARIS 2","lon":2.34487583162,"lat":48.8468015806},{"name":"BIBLIOTHÈQUE DE L'UNIVERSITÉ  D'EVRY","lon":2.42597955226,"lat":48.6249351892},{"name":"UNITÉ DE FORMATION ET DE RECHERCHE -  LINGUISTIQUE ET PHONÉTIQUE GÉNÉRALES ET APPLIQUÉES UNIVERSITÉ PARIS 3","lon":2.35066333207,"lat":48.849955703},{"name":"INSTITUT UNIVERSITAIRE DE TECHNOLOGIE DE LA PLAINE SAINT DENIS","lon":2.36139382264,"lat":48.9119926123},{"name":"SERVICE COMMUN DE LA DOCUMENTATION UNIVERSITAIRE - BIBLIOTHÈQUE SAINTE-GENEVIÈVE","lon":2.3458589468,"lat":48.8469688447},{"name":"UNIVERSITE PARIS 8","lon":2.36213025784,"lat":48.9459726438},{"name":"UNITÉ DE FORMATION ET DE RECHERCHE - HISTOIRE UNIVERSITÉ PARIS 4","lon":2.34280602515,"lat":48.8483065485},{"name":"UNITÉ DE FORMATION ET DE RECHERCHE LANGUES LITTÉRATURES ET CULTURES ÉTRANGÈRES (LLCE-LEA), UNIVERSITÉ PARIS 8","lon":2.36505276248,"lat":48.9441158637},{"name":"UNITÉ DE FORMATION ET DE RECHERCHE - LITTÉRATURE FRANÇAISE ET COMPARÉE UNIVERSITÉ PARIS 4","lon":2.34280602515,"lat":48.8483065485},{"name":"GRETA ENS-CENT","lon":2.32734957492,"lat":48.788907166},{"name":"UNITÉ DE FORMATION ET DE RECHERCHE - MATHÉMATIQUES ET INFORMATIQUE UNIVERSITÉ PARIS 5","lon":2.33128829118,"lat":48.8555320152},{"name":"UNIVERSITE PARIS EST CRETEIL","lon":2.44417825203,"lat":48.7884814573},{"name":"BIBLIOTHÈQUE INTERUNIVERSITAIRE DE PHARMACIE","lon":2.33633541127,"lat":48.843418775800004},{"name":"ECOLE SUPÉRIEURE D'INGÉNIEURS - UNIVERSITÉ PARIS 12","lon":2.443679,"lat":48.794965},{"name":"UNITÉ DE FORMATION ET DE RECHERCHE - ÉDUCATION PHYSIQUE ET SPORTIVE UNIVERSITÉ PARIS 5","lon":2.29093774634,"lat":48.8338174355},{"name":"ANTENNE DE L'UNITÉ DE FORMATION ET DE RECHERCHE LETTRES ET SCIENCES HUMAINES UNIVERSITÉ PARIS 12","lon":2.45309244024,"lat":48.7905507254},{"name":"UNITÉ DE FORMATION ET DE RECHERCHE - ETUDES ANGLOPHONES CHARLES V - UNIVERSITÉ PARIS DIDEROT","lon":2.3629600269099997,"lat":48.8529213254},{"name":"ANTENNE DE LIVRY GARGAN DE L'ÉCOLE SUPÉRIEURE DU PROFESSORAT ET DE L'ÉDUCATION DE L'ACADÉMIE DE CRÉTEIL","lon":2.53910183944,"lat":48.9142703656},{"name":"UNITÉ DE FORMATION ET DE RECHERCHE -  SCIENCES DE LA TERRE, DE L'ENVIRONEMENT ET DES PLANÈTES UNIVERSITÉ PARIS DIDEROT","lon":2.35517899155,"lat":48.8462531864},{"name":"SERVICE UNIVERSITAIRE DES ACTIVITÉS PHYSIQUES ET SPORTIVES","lon":2.07492971012,"lat":49.0383034742},{"name":"UNITÉ  DE FORMATION ET DE RECHERCHE D'ODONTOLIGIE - UNIVERSITÉ PARIS DIDEROT","lon":2.3358517197,"lat":48.8507944442},{"name":"IREM","lon":-61.5290599346,"lat":16.2240379979},{"name":"ANTENNE DE L'INSTITUT D'ETUDES POLITIQUES DE PARIS - 1ER CYCLE EUROPE-ASIE - UNIVERSITE DU HAVRE","lon":0.117927297462,"lat":49.489609915},{"name":"ANTENNE SERVICE D EDUCATION PERMANENTE ET DE LA FORMATION CONTINUE, UNIVERSITE DES ANTILLES ET DE LA GUYANE","lon":-61.1023660801,"lat":14.6160689539},{"name":"CENTRE RÉGIONAL ASSOCIÉ AU CONSERVATOIRE NATIONAL DES ARTS ET MÉTIERS DE CHAMPAGNE-ARDENNE","lon":4.02565124304,"lat":49.2633358645},{"name":"ANTENNE UFR SC-HUMAINES CAMP JACOB","lon":-61.6953636793,"lat":16.0266008892},{"name":"SERVICE UNIVERSITAIRE DE MEDECINE PREVENTIVE","lon":3.08662498133,"lat":45.7649234917},{"name":"ECOLE SUPÉRIEURE DU PROFESSORAT ET DE L'ÉDUCATION DE L'ACADÉMIE DE LA RÉUNION","lon":55.4466210394,"lat":-20.8971720561},{"name":"CENTRE RÉGIONAL CNAM IUT NICE","lon":7.22837457549,"lat":43.6868477661},{"name":"DEPART CONSTRUCT ENVIRON","lon":55.5073020441,"lat":-21.2703072887},{"name":"ECOLE DE DROIT, UNIVERSITE CLERMONT 1","lon":3.08909911894,"lat":45.7712970303},{"name":"CENTRE REGIONAL ASSOCIE AU CNAM","lon":5.06835256917,"lat":47.3109427835},{"name":"CENTRE RÉGIONAL AGRÉÉ DU CNAM","lon":6.18486969601,"lat":48.6793568378},{"name":"UNIVERSITE DE NICE SOPHIA ANTIPOLIS","lon":7.26729398492,"lat":43.7168812836},{"name":"CENTRE RÉGIONAL ASSOCIÉ AU CNAM DE L'UNIVERSITÉ DE LORRAINE","lon":6.19767093617,"lat":49.1060887076},{"name":"ANTENNE DU SERVICE DES RELATIONS INTERNATIONALES   UNIVERSITÉ AIX-MARSEILLE 1","lon":5.44775147384,"lat":43.516185633},{"name":"ANNEXE CNAM MARTINIQUE","lon":-52.6427522446,"lat":5.15837578794},{"name":"INSTITUT UNIVERSITAIRE DE TECHNOLOGIE D'AIX-EN-PROVENCE (LA CIOTAT), UNIVERSITE AIX MARSEILLE","lon":5.60436814454,"lat":43.173326011},{"name":"SERVICE COMMUN DE LA DOCUMENTATION UNIVERSITAIRE DE L'UNIVERSITE DE ROUEN","lon":1.0680931326,"lat":49.4582821762},{"name":"UNITE DE FORMATION ET DE RECHERCHE DES LANGUES VIVANTES ETRANGERES, UNIVERSITE DE CAEN","lon":-0.361618955731,"lat":49.1925210479},{"name":"SERVICE INTRA-UNIVERSITAIRE DES AFFAIRES SOCIALES DE L'UNIVERSITE DE ROUEN","lon":1.06921580166,"lat":49.4585032647},{"name":"ESIX NORMANDIE","lon":-0.341863497472,"lat":49.1752693168},{"name":"ANTENNE DE L'INSTITUT UNIVERSITAIRE DE TECHNOLOGIE DE L'UNIVERSITÉ PARIS-EST MARNE LA VALLÉE","lon":2.8781851615000003,"lat":48.9545733125},{"name":"SERVICE COMMUN DE MEDECINE PREVENTIVE ET DE LA PROMOTION DE LA SANTE DE L UNIVERSITE DE DIJON","lon":5.06984976692,"lat":47.3157421113},{"name":"UNITÉ DE FORMATION ET DE RECHERCHE SCIENCES ET TECHNIQUES DES ACTIVITÉS PHYSIQUES ET SPORTIVES, UNIVERSITÉ PARIS-EST MARNE-LA-VALLÉE","lon":2.58639141254,"lat":48.839209722},{"name":"SERVICES CENTRAUX DE L UNIVERSITE DE DIJON","lon":5.04197622666,"lat":47.3229771541},{"name":"SERVICE UNIVERSITAIRE DES ACTIVITÉS PHYSIQUES ET SPORTIVES","lon":2.58648394102,"lat":48.8399115325},{"name":"ANTENNE DE DIJON DE L'ÉCOLE SUPÉRIEURE DU PROFESSORAT ET DE L'ÉDUCATION DE L'ACADÉMIE DE DIJON","lon":5.03916454176,"lat":47.310460523},{"name":"INSTITUT UNIVERSITAIRE DE TECHNOLOGIE DE MANTES EN YVELINES DE L'UNIVERSITÉ VERSAILLES SAINT QUENTIN EN YVELINES","lon":1.7101878897499998,"lat":48.9965143042},{"name":"ANTENNE DE AUXERRE  DE L'ÉCOLE SUPÉRIEURE DU PROFESSORAT ET DE L'ÉDUCATION DE L'ACADÉMIE DE DIJON","lon":3.56238755588,"lat":47.7923600305},{"name":"SERVICE COMMUN UNIVERSITAIRE D'INFORMATION ET D'ORIENTATION- UNIVERSITÉ DE VERSAILLES SAINT QUENTIN EN YVELINES","lon":2.04384680737,"lat":48.7803388913},{"name":"ECOLE NATIONALE SUPERIEURE DE MECANIQUE ET DES MICROTECHNIQUES DE BESANCON","lon":5.99398824479,"lat":47.2510047997},{"name":"INST.SUP.DES SCIENCES ET TECN.","lon":3.28748321788,"lat":49.8495327435},{"name":"ANT BIBLIOTHÈQUE UNIV - VESOUL","lon":6.12245041605,"lat":47.6286838214},{"name":"UNIVERSITÉ DU TEMPS LIBRE VAR UNIVERSITÉ TOULON","lon":5.93880125922,"lat":43.121320547},{"name":"ANTENNE DE L'UFR DES SCIENCES TECHNOLOGIQUES DE L'UNIVERSITE DE BESANCON","lon":5.54594734051,"lat":46.6724350113},{"name":"SERVICE UNIVERSITAIRE D'ACTIVITÉS PHYSIQUES ET SPORTIVES DE L'UNIVERSITÉ DE POITIERS","lon":0.38586070563999997,"lat":46.5631331395},{"name":"INSTITUT UNIVERSITAIRE DE TECHNOLOGIE DE QUIMPER, UNIVERSITÉ BRETAGNE OCCIDENTALE","lon":-4.09753362924,"lat":47.9807069586},{"name":"MAISON DES ETUDIANTS DE L'UNIVERSITE DE POITIERS","lon":0.38458674415599997,"lat":46.5698853556},{"name":"UNITÉ DE FORMATION ET DE RECHERCHE EN DROIT ET SCIENCES ECONOMIQUES, UNIVERSITÉ DE BRETAGNE OCCIDENTALE","lon":-4.50561003383,"lat":48.3995899017},{"name":"SERVICE COMMUN DE LA DOCUMENTATION UNIVERSITAIRE DE L'UNIVERSITE DE LIMOGES","lon":1.22930829595,"lat":45.8166964828},{"name":"UNITÉ RÉGIONALE DE FORMATION À L'INFORMATION SCIENTIFIQUE ET TECHNIQUE   UNIVERSITÉ TOULOUSE 1","lon":1.43662172867,"lat":43.6072454016},{"name":"INSTITUT UNIVERSITAIRE PROFESSIONNALISÉ GÉNIE ÉLECTRIQUE ET INFORMATIQUE INDUSTRIELLE, UNIVERSITÉ PARIS 11","lon":2.32852366595,"lat":48.7876842782},{"name":"ANTENNE D'ALBI DE L'ÉCOLE SUPÉRIEURE DU PROFESSORAT ET DE L'ÉDUCATION DE L'ACADÉMIE DE TOULOUSE","lon":2.13813752421,"lat":43.9256544287},{"name":"UNITÉ DE FORMATION ET DE RECHERCHE SCIENCES ECONOMIQUES ET JURIDIQUES - UNIVERSITÉ D'EVRY VAL D'ESSONNE","lon":2.42597955226,"lat":48.6249351892},{"name":"OBSERVATOIRE DE MIDI-PYRÉNÉES DE TARBES            UNIVERSITÉ DE TOULOUSE 3","lon":0.0491327878123,"lat":43.2240724247},{"name":"ANTENNE INSTITUT UNIVERSITAIRE DE TECHNOLOGIE  DE BRETIGNY - EVRY VAL D'ESSONNE","lon":2.30695455928,"lat":48.6184290113},{"name":"UNITE DE FORMATION ET DE RECHERCHE DE PHYSIQUE UNIVERSITE BORDEAUX","lon":-0.592166528493,"lat":44.8059489822},{"name":"UNIVERSITÉ PARIS OUEST NANTERRE LA DÉFENSE","lon":2.21448515493,"lat":48.9035308824},{"name":"UNITÉ DE FORMATION INFORMATIQUE DE L'UNIVERSITÉ DE BORDEAUX","lon":-0.592166528493,"lat":44.8059489822},{"name":"CENTRE OPTIMISÉ DE MÉDIATISATION ET DE TECHNOLOGIE EDUCATIVE - UNIVERSITÉ PARIS 10","lon":2.2091096772,"lat":48.9048274111},{"name":"UNIVERSITÉ DE MONTPELLIER","lon":3.8720432860000003,"lat":43.6158383948},{"name":"ANTENNE DE L'INSTITUT UNIVERSITAIRE DE TECHNOLOGIE DE LIEUSAINT","lon":2.68474662549,"lat":48.4004992804},{"name":"UNITE DE FORMATION ET DE RECHERCHE DE SCIENCES ET TECHNIQUES DES ACTIVITES PHYSIQUES ET SPORTIVES, UNIVERSITE DE RENNES 2","lon":-1.7098730949499998,"lat":48.1245770492},{"name":"UNITÉ DE FORMATION ET DE RECHERCHE DE MÉDECINE UNIVERSITÉ PARIS 12","lon":2.45385680346,"lat":48.7951618138},{"name":"CENTRE UNIVERSITAIRE D'ENSEIGNEMENT DU FRANCAIS AUX ETUDIANTS ETRANGERS","lon":0.678395227214,"lat":47.3870634088},{"name":"0","lon":2.3759664829,"lat":48.7765954141},{"name":"ANTENNE DE VALENCE DE L'INSTITUT DE GÉOGRAPHIE ALPINE - UNIVERSITÉ GRENOBLE ALPES","lon":4.914969,"lat":44.91761},{"name":"0","lon":2.44238768499,"lat":48.7887986975},{"name":"ANTENNE DE VALENCE DE L'INSTITUT D'ADMINISTRATION DES ENTREPRISES DE GRENOBLE","lon":4.91654840863,"lat":44.91893452},{"name":"ANTENNE DE PONTOISE DE L'INSTITUT UNIVERSITAIRE DE TECHNOLOGIE - UNIVERSITÉ DE CERGY-PONTOISE","lon":2.03894187378,"lat":49.0537924589},{"name":"UNITÉ DE FORMATION ET DE RECHERCHE FACULTÉ D'ECONOMIE DE GRENOBLE - UNIVERSITÉ GRENOBLE ALPES","lon":5.77234216649,"lat":45.1886215507},{"name":"ECOLE SUPÉRIEURE DU PROFESSORAT ET DE L'ÉDUCATION DE L'ACADÉMIE DE VERSAILLES","lon":2.06987441237,"lat":48.8998258983},{"name":"UNITÉ DE FORMATION ET DE RECHERCHE INFORMATIQUE MATHÉMATIQUE ET MATHÉMATIQUES APPLIQUÉES DE GRENOBLE - UNIVERSITÉ GRENOBLE ALPES","lon":5.72628081679,"lat":45.1868757226},{"name":"UNITÉ DE FORMATION ET DE RECHERCHE SCIENCES ET  TECHNIQUES - UNIVERSITÉ DE CERGY-PONTOISE","lon":2.08540334899,"lat":49.0434598289},{"name":"UNITÉ DE FORMATION ET DE RECHERCHE CHIMIE ET BIOLOGIE - UNIVERSITÉ GRENOBLE ALPES","lon":5.73401326862,"lat":45.1620400797},{"name":"ECOLE FRANCAISE DE ROME","lon":12.47102,"lat":41.894941},{"name":"SERVICE UNIVERSITAIRE INFORMATION ET ORIENTATION UNIVERSITE DE SAINT ETIENNE","lon":4.39172270775,"lat":45.4267041972},{"name":"UNITÉ DE FORMATION ET DE RECHERCHE DROIT SCIENCES SOCIALES ÉCONOMIE ET GESTION","lon":9.15213785086,"lat":42.3065361305},{"name":"ECOLE CENTRALE DE NANTES","lon":-1.5478592621699998,"lat":47.249063612},{"name":"INSTITUT UNIVERSITAIRE DE TECHNOLOGIE DE LA GUADELOUPE - UNIVERSITÉ DES ANTILLES","lon":-61.6955179922,"lat":16.0280217586},{"name":"INTITUT UNIVERSITAIRE DE TECHNOLOGIE DE NANTES, UNIVERSITÉ DE NANTES","lon":-1.54490963986,"lat":47.2230807478},{"name":"CENTRE APP IUT DE KOUROU","lon":-52.6531391041,"lat":5.16053360273},{"name":"INSTITUT DE RECHERCHE ENSEIGNEMENT DES MATHÉMATIQUES, UNIVERSITÉ DE NANTES","lon":-1.55514323539,"lat":47.2355440624},{"name":"INSTITUT CONFUCIUS","lon":55.4841882831,"lat":-20.901823748},{"name":"ECOLE POLYTECHNIQUE NANTES ESA IGELEC ANTENNE DE ST-NAZAIRE - OPTION GÉNIE ÉLECTRIQUE","lon":-2.25706805271,"lat":47.2530673255},{"name":"DÉPARTEMENT INFORMATIQUE ET TÉLÉCOM","lon":55.4841882831,"lat":-20.901823748},{"name":"SERVICE UNIVERSITAIRE","lon":1.93116405612,"lat":47.8508086472},{"name":"POLYTECH ORLEANS","lon":1.92845524263,"lat":47.8425662278},{"name":"COLLEGIUM SCIENCES ET TECHNIQUES, UNIVERSITE ORLEANS","lon":1.93414049398,"lat":47.8506179117},{"name":"INSTITUT DE FORMATION TECHNIQUE SUPÉRIEURE, UNIVERSITÉ DE REIMS","lon":4.7183692909,"lat":49.7394238796},{"name":"ANTENNE DE L UFR DROIT SCIENCES POLITIQUES (ARLES)  UNIVERSITE AIX MARSEILLE","lon":4.62575104036,"lat":43.6759641606},{"name":"BIBLIOTHÈQUE UNIVERSITAIRE DE L'UNIVERSITÉ DE REIMS","lon":3.9990965895,"lat":49.2339609565},{"name":"ANTENNE UNITE DE FORMATION ET DE RECHERCHE DROIT SCIENCES POLITIQUES UNIVERSITE AIX MARSEILLE","lon":5.38265030505,"lat":43.2980942938},{"name":"INSTITUT UNIVERSITAIRE PROFESSIONNALISÉ GÉNIE ELECTRIQUE ET INFORMATIQUE INDUSTRIELLE, UNIVERSITÉ DE REIMS","lon":4.06252121398,"lat":49.2399729753},{"name":"UNITE DE FORMATION ET DE RECHERCHE DES SCIENCES ET TECHNIQUES DES ACTIVITES PHYSIQUES ET SPORTIVES DE L UNIVERSITE AIX MARSEILLE","lon":5.43798874829,"lat":43.2348800026},{"name":"ANTENNE DE CHAUMONT DE L'ÉCOLE SUPÉRIEURE DU PROFESSORAT ET DE L'ÉDUCATION DE L'ACADÉMIE DE REIMS","lon":5.14463836342,"lat":48.1125915865},{"name":".","lon":3.88087475845,"lat":45.0398240116},{"name":"ANTENNE DE L'INSTITUT UNIVERSITAIRE TECHNOLOGIQUE DE NANCY À VANDOEUVRE DE L'UNIVERSITÉ DE LORRAINE","lon":6.14842480784,"lat":48.6515489749},{"name":"UNITE DE FORMATION ET DE RECHERCHE DE PSYCHOLOGIE ET SCIENCES DE L EDUCATION UNIVERSITE AIX-MARSEILLE","lon":5.44911222331,"lat":43.5168570292},{"name":"ANTENNE DE LA FACULTÉ DES SCIENCES ET TECHNOLOGIES À EPINAL DE L'UNIVERSITÉ DE LORRAINE","lon":6.46166587098,"lat":48.1976744731},{"name":"ANTENNE UFR SCIENCES, UNIVERSITE AIX MARSEILLE","lon":5.44027896744,"lat":43.5194351906},{"name":"INSTITUT DE PRÉPARATION À L'ADMINISTRATION GÉNÉRALE DE L'UNIVERSITÉ DE LORRAINE","lon":6.175681547,"lat":48.6930894635},{"name":"INSTITUT UNIVERSITAIRE DE TECHNOLOGIE D'AIX- MARSEILLE (GAP) UNIVERSITE AIX MARSEILLE","lon":6.07999988891,"lat":44.5620636118},{"name":"UNITÉ DE FORMATION ET DE RECHERCHE DE SCIENCES ET TECHNIQUES DES ACTIVITÉS PHYSIQUES ET SPORTIVES DE L'UNIVERSITÉ DE LORRAINE","lon":6.15719865598,"lat":48.6666677575},{"name":"MAISON DE LA RÉUSSITE ET DE L'INSERTION PROFESSIONNELLE, UNIVERSITÉ DE LA ROCHELLE","lon":-1.15509676253,"lat":46.1481967585},{"name":"PÔLE D'ENSEIGNEMENT D'AUTOFORMATION ET DE RESSOURCES EN LANGUES DE L'UNIVERSITÉ DE LORRAINE","lon":6.1675674417,"lat":48.694670906},{"name":"CENTRE UNIVERSITAIRE CONDORCET DE L'UNIVERSITE     DE DIJON","lon":4.42347222356,"lat":46.807705748000004},{"name":"CYCLE PRÉPARATOIRE POLYTECHNIQUE DE L'UNIVERSITÉ DE LORRAINE","lon":6.15224672597,"lat":48.6551116913},{"name":"MAISON DE L'ETUDIANT","lon":5.98811988519,"lat":47.2481670315},{"name":"ANTENNE DE SARREGUEMINES DE L'ÉCOLE SUPÉRIEURE DU PROFESSORAT ET DE L'ÉDUCATION DE L'ACADÉMIE DE NANCY-METZ","lon":7.07307036618,"lat":49.1155892042},{"name":"UNITE DE FORMATION ET DE RECHERCHE DES SCIENCES JURIDIQUES ECONOMIQUES POLITIQUES ET DE GESTION","lon":5.98713624324,"lat":47.2482986925},{"name":"UNIVERSITE AMIENS","lon":2.29776485825,"lat":49.8919233486},{"name":"POLE UNIVERSITAIRE QUIMPEROIS PIERRE-JAKEZ HELIAS DE DROIT ET SCIENCES ECONOMIQUES UNIVERSITE DE BREST","lon":-4.09367988953,"lat":47.9723055998},{"name":"UNIVERSITE AMIENS","lon":2.26960298115,"lat":49.8771408326},{"name":"ECOLE NATIONALE VÉTÉRINAIRE DE TOULOUSE","lon":1.38189816067,"lat":43.6004478115},{"name":"ANT UFR SCIENCES DU SPORT","lon":3.32263599637,"lat":49.3810696388},{"name":"UNITÉ DE FORMATION ET DE RECHERCHE DE LETTRES, PHILOSOPHIE ET MUSIQUE, UNIVERSITÉ TOULOUSE 2","lon":1.40025827872,"lat":43.5783687583},{"name":"DÉPARTEMENT DROIT, ECONOMIE, GESTION - INSTITUT NATIONAL UNIVERSITAIRE JEAN-FRANÇOIS CHAMPOLLION","lon":2.13899763948,"lat":43.9199821869},{"name":"UNIVERSITÉ TOULOUSE 3 PAUL SABATIER","lon":1.46936246291,"lat":43.5608264691},{"name":"IUT DE TOULON UNIVERSITÉ DE TOULON","lon":6.01765691158,"lat":43.1363803922},{"name":"UNITE DE FORMATION ET DE RECHERCHE  HUMANITES  DE BORDEAUX 3","lon":-0.622277178445,"lat":44.7935085312},{"name":"IUP SCIENCES DE GESTION","lon":5.93062700305,"lat":43.1248896125},{"name":"SERVICE COMMUN UNIVERSITAIRE COMMUNICATION AUDIO  VISUELLE UNIVERSITAIRE BORDEAUX","lon":-0.607773871938,"lat":44.8251734475},{"name":"INSTITUT UNIVERSITAIRE DE TECHNOLOGIE D'ANGOULEME, UNIVERSITE DE POITIERS","lon":0.137499273677,"lat":45.6480506879},{"name":"SERVICE COMMUN UNIVERSITAIRE FORMATION CONTINUE UNIVERSITE BORDEAUX","lon":-0.607773871938,"lat":44.8251734475},{"name":"UNITE DE FORMATION ET DE RECHERCHE DE SCIENCES ECONOMIQUES UNIVERSITE DE POITIERS","lon":0.379670893733,"lat":46.5724378794},{"name":"SERVICE UNIVERSITAIRE DES ACTIVITES PHYSIQUES ET SPORTIVES UNIVERSITE BORDEAUX","lon":-0.592166528493,"lat":44.8059489822},{"name":"SERVICE DU DÉVELOPPEMENT SOCIAL ET DE LA DIVERSITÉ","lon":0.373580907847,"lat":46.571209065},{"name":"CFA UNIVERSITE DE BORDEAUX MÉTIERS DES SCIENCES ET TECHNO","lon":-0.592166528493,"lat":44.8059489822},{"name":"INSTITUT D'ADMINISTRATION DES ENTREPRISES","lon":1.2602712678899999,"lat":45.8248698753},{"name":"UNITE DE FORAMTION ET DE RECHERCHE ECONOMIE, ADMINISTRATION ECONOMIQUE ET SOCIALE, GESTION","lon":-0.617804626533,"lat":44.7970740304},{"name":"CENTRALESUPÉLEC","lon":2.28248423244,"lat":48.7659313128},{"name":"ANTENNE D'IUT BORDEAUX","lon":0.624289921382,"lat":44.1837097871},{"name":"UNITÉ DE FORMATION ET DE RECHERCHE DE LANGUES ET CULTURES ETRANGÈRES DE L'UNIVERSITÉ DE  PARIS OUEST  NANTERRE LA DÉFENSE","lon":2.21260418626,"lat":48.9050482862},{"name":"INSTITUT NATIONAL D'ÉTUDES SUPÉRIEURES AGRONOMIQUES DE MONTPELLIER (MONTPELLIER SUP AGRO)","lon":3.85621788452,"lat":43.6190128418},{"name":"UNITÉ DE FORMATION ET DE RECHERCHE LETTRES SCIENCES DE L'HOMME ET DES SOCIÉTÉS, UNIVERSITÉ PARIS 13","lon":2.3383349273,"lat":48.9565953931},{"name":"ECOLE SUPÉRIEURE DU PROFESSORAT ET DE L'ÉDUCATION DE L'ACADÉMIE DE MONTPELLIER","lon":3.86916856669,"lat":43.6195084316},{"name":"INSTITUT UNIVERSITAIRE DE TECHNOLOGIE,UNIVERSITÉ PARIS 12","lon":2.56360806233,"lat":48.6268817047},{"name":"INSTITUT UNIVERSITAIRE DE TECHNOLOGIE DE RENNES, UNIVERSITÉ RENNES 1","lon":-1.62873906601,"lat":48.1222168819},{"name":"ANTENNE DE BONNEUIL DE L'ÉCOLE SUPÉRIEURE DU PROFESSORAT ET DE L'ÉDUCATION DE L'ACADÉMIE DE CRÉTEIL","lon":2.483808475,"lat":48.764883475},{"name":"UNITE DE FORMATION ET DE RECHERCHE DES SCIENCES JURIDIQUES, UNIVERSITE DE RENNES 1","lon":-1.66991886873,"lat":48.1175095933},{"name":"SCREP","lon":2.07492971012,"lat":49.0383034742},{"name":"UNITE DE FORMATION ET DE RECHERCHE DES SCIENCES MEDICALES, UNIVERSITE DE RENNES 1","lon":-1.6984405475000002,"lat":48.1174921828},{"name":"ANTENNE DE GENNEVILLIERS DE L'UFR LETTRES ET SCIENCES HUMAINES","lon":2.30427208277,"lat":48.9396831595},{"name":"SERVICE COMMUN DE LA DOCUMENTATION UNIVERSITAIRE DE L'UNIVERSITE RENNES 1","lon":-1.6768059690400001,"lat":48.1172056849},{"name":"SERVICE UNIV DES ACTIVITÉS PHYSIQUES ET SPORTIVES","lon":-61.532260604,"lat":16.2248509582},{"name":"INSTITUT SUPERIEUR DES SCIENCES AGRONOMIQUES AGROALIMENTAIRES HORTICOLES ET DU PAYSAGE","lon":-0.606525521407,"lat":47.4778448803},{"name":"SERVICE COMMUN UNIVERSITAIRE D'IINFORMATION ET D'ORIENTATION","lon":-61.532260604,"lat":16.2248509582},{"name":"SERVICE COMMUN UNIVERSITAIRE","lon":1.33671861127,"lat":47.5902859229},{"name":"SERVICE COMMUN DE LA DOCUMENTATION UNIVERSITAIRE DE L'UNIVERSITE DES ANTILLES ET DE LA GUYANE","lon":-61.1023660801,"lat":14.6160689539},{"name":"ECOLE SUPÉRIEURE DU PROFESSORAT ET DE L'EDUCATION DE L'ACADÉMIE DE GRENOBLE - ANTENNE DE CHAMBÉRY","lon":5.9151546562,"lat":45.5684103251},